{
"type": "FeatureCollection",
"name": "Nat_yang_gangs_static",
"features": [
{ "type": "Feature", "properties": { "Name": "Kettle Falls", "City": "Kettle Falls", "State": "Washington", "Yang_Gang_Primary_Contact": "Joel Sanders", "Yang_Gang_Primary_Contact_Email": "kettlefallscoville.yanggang@gmail.com", "Yang_Gang_Regional_Organizer_Email": "washington.yang.gang@gmail.com", "Yang_Gang_Facebook_Group": "https:\/\/www.facebook.com\/groups\/266131564305976\/", "Google_Group_Link": "", "Slack_Group_link": "" }, "geometry": null },
{ "type": "Feature", "properties": { "Name": "Broward County", "City": "Broward County", "State": "Florida", "Yang_Gang_Primary_Contact": "Lois Galardi", "Yang_Gang_Primary_Contact_Email": "Sunrise.Yang.Gang@gmail.com", "Yang_Gang_Regional_Organizer_Email": "florida.yang.gang@gmail.com", "Yang_Gang_Facebook_Group": "https:\/\/www.facebook.com\/groups\/156395231917826", "Google_Group_Link": "", "Slack_Group_link": "" }, "geometry": null },
{ "type": "Feature", "properties": { "Name": "Eastern Pennsylvania", "City": "Eastern Pennsylvania", "State": "Pennsylvania", "Yang_Gang_Primary_Contact": "Sam Hendel", "Yang_Gang_Primary_Contact_Email": "samhhendel@gmail.com", "Yang_Gang_Regional_Organizer_Email": "", "Yang_Gang_Facebook_Group": "https:\/\/www.facebook.com\/groups\/EasternPAYangGang\/", "Google_Group_Link": "", "Slack_Group_link": "" }, "geometry": null },
{ "type": "Feature", "properties": { "Name": "Albuquerque", "City": "Albuquerque", "State": "New Mexico", "Yang_Gang_Primary_Contact": "Thomas Chepucavage", "Yang_Gang_Primary_Contact_Email": "tomchepucavage@gmail.com", "Yang_Gang_Regional_Organizer_Email": "newmexico.yang.gang@gmail.com", "Yang_Gang_Facebook_Group": "https:\/\/www.facebook.com\/groups\/2005798586167971\/", "Google_Group_Link": "", "Slack_Group_link": "" }, "geometry": null },
{ "type": "Feature", "properties": { "Name": "Berlin", "City": "Berlin", "State": "Germany", "Yang_Gang_Primary_Contact": "Stefan Perlebach", "Yang_Gang_Primary_Contact_Email": "stefanperlebach@gmail.com", "Yang_Gang_Regional_Organizer_Email": "", "Yang_Gang_Facebook_Group": "https:\/\/www.facebook.com\/groups\/2256951321064644\/", "Google_Group_Link": "", "Slack_Group_link": "" }, "geometry": null },
{ "type": "Feature", "properties": { "Name": "Ames", "City": "Ames", "State": "Iowa", "Yang_Gang_Primary_Contact": "Joel Stenseth", "Yang_Gang_Primary_Contact_Email": "stenseth@iastate.edu", "Yang_Gang_Regional_Organizer_Email": "Iowa.Yang.Gang@gmail.com", "Yang_Gang_Facebook_Group": "https:\/\/www.facebook.com\/groups\/amesyanggang\/", "Google_Group_Link": "", "Slack_Group_link": "" }, "geometry": null },
{ "type": "Feature", "properties": { "Name": "Amherst", "City": "Amherst", "State": "Massachusetts", "Yang_Gang_Primary_Contact": "Nathan Tavares", "Yang_Gang_Primary_Contact_Email": "amherstma.yang.gang@gmail.com", "Yang_Gang_Regional_Organizer_Email": "Massachusetts.Yang.Gang@gmail.com", "Yang_Gang_Facebook_Group": "https:\/\/www.facebook.com\/groups\/590313904706590\/", "Google_Group_Link": "", "Slack_Group_link": "" }, "geometry": null },
{ "type": "Feature", "properties": { "Name": "Manhattan", "City": "Manhattan", "State": "Kansas", "Yang_Gang_Primary_Contact": "Christopher Hatch", "Yang_Gang_Primary_Contact_Email": "hatch271@gmail.com", "Yang_Gang_Regional_Organizer_Email": "kansas.yang.gang@gmail.com", "Yang_Gang_Facebook_Group": "https:\/\/www.facebook.com\/groups\/400877893842099\/", "Google_Group_Link": "", "Slack_Group_link": "" }, "geometry": null },
{ "type": "Feature", "properties": { "Name": "Antietam", "City": "Antietam", "State": "Maryland", "Yang_Gang_Primary_Contact": "Erin Armata + Anthony Newcomer", "Yang_Gang_Primary_Contact_Email": "", "Yang_Gang_Regional_Organizer_Email": "maryland.yang.gang@gmail.com", "Yang_Gang_Facebook_Group": "https:\/\/www.facebook.com\/groups\/285474612126461\/?ref=br_rs", "Google_Group_Link": "", "Slack_Group_link": "" }, "geometry": null },
{ "type": "Feature", "properties": { "Name": "Goodyear", "City": "Goodyear", "State": "Arizona", "Yang_Gang_Primary_Contact": "Jeffrey Hotz", "Yang_Gang_Primary_Contact_Email": "Jeffreyjhotz@icloud.com", "Yang_Gang_Regional_Organizer_Email": "arizona.yang.gang@gmail.com", "Yang_Gang_Facebook_Group": "https:\/\/www.facebook.com\/groups\/2189321917828416\/", "Google_Group_Link": "", "Slack_Group_link": "" }, "geometry": null },
{ "type": "Feature", "properties": { "Name": "Shenandoah Valley", "City": "Shenandoah Valley", "State": "West Virginia", "Yang_Gang_Primary_Contact": "Alex White", "Yang_Gang_Primary_Contact_Email": "Shenandoah.yang.gang@gmail.com", "Yang_Gang_Regional_Organizer_Email": "WestVirginia.yang.gang@gmail.com", "Yang_Gang_Facebook_Group": "https:\/\/www.facebook.com\/groups\/254511838793397", "Google_Group_Link": "", "Slack_Group_link": "" }, "geometry": null },
{ "type": "Feature", "properties": { "Name": "Asheville", "City": "Asheville", "State": "North Carolina", "Yang_Gang_Primary_Contact": "Isaac Klepac", "Yang_Gang_Primary_Contact_Email": "", "Yang_Gang_Regional_Organizer_Email": "NC.Yang.Gang@gmail.com ", "Yang_Gang_Facebook_Group": "https:\/\/www.facebook.com\/groups\/414435945990929", "Google_Group_Link": "", "Slack_Group_link": "" }, "geometry": null },
{ "type": "Feature", "properties": { "Name": "Ashland", "City": "Ashland", "State": "Wisconsin", "Yang_Gang_Primary_Contact": "Jonathan James", "Yang_Gang_Primary_Contact_Email": "jonathancurtisjames@gmail.com ", "Yang_Gang_Regional_Organizer_Email": "wisconsin.yang.gang@gmail.com", "Yang_Gang_Facebook_Group": "", "Google_Group_Link": "", "Slack_Group_link": "" }, "geometry": null },
{ "type": "Feature", "properties": { "Name": "Astoria", "City": "Astoria", "State": "Oregon", "Yang_Gang_Primary_Contact": "", "Yang_Gang_Primary_Contact_Email": "", "Yang_Gang_Regional_Organizer_Email": "oregon.yang.gang@gmail.com ", "Yang_Gang_Facebook_Group": "https:\/\/www.facebook.com\/groups\/1065624850287377\/", "Google_Group_Link": "", "Slack_Group_link": "" }, "geometry": null },
{ "type": "Feature", "properties": { "Name": "Atlanta", "City": "Atlanta", "State": "Georgia", "Yang_Gang_Primary_Contact": "Lacey Delayne Hunt", "Yang_Gang_Primary_Contact_Email": "atlanta.yang.gang@gmail.com", "Yang_Gang_Regional_Organizer_Email": "georgia.yang.gang@gmail.com", "Yang_Gang_Facebook_Group": "https:\/\/www.facebook.com\/groups\/2006074949428356\/", "Google_Group_Link": "", "Slack_Group_link": "" }, "geometry": null },
{ "type": "Feature", "properties": { "Name": "Texas State", "City": "Texas State", "State": "Texas", "Yang_Gang_Primary_Contact": "Luke Olson", "Yang_Gang_Primary_Contact_Email": "luke.olson@outlook.com", "Yang_Gang_Regional_Organizer_Email": "", "Yang_Gang_Facebook_Group": "https:\/\/www.facebook.com\/groups\/560196894464815\/", "Google_Group_Link": "", "Slack_Group_link": "" }, "geometry": null },
{ "type": "Feature", "properties": { "Name": "Baltimore", "City": "Baltimore", "State": "Maryland", "Yang_Gang_Primary_Contact": "Steven Hung", "Yang_Gang_Primary_Contact_Email": "baltimore.yang.gang@gmail.com", "Yang_Gang_Regional_Organizer_Email": "maryland.yang.gang@gmail.com", "Yang_Gang_Facebook_Group": "https:\/\/www.facebook.com\/groups\/396213164462413\/?fref=mentions", "Google_Group_Link": "", "Slack_Group_link": "" }, "geometry": null },
{ "type": "Feature", "properties": { "Name": "Bartlesville", "City": "Bartlesville", "State": "Oklahoma", "Yang_Gang_Primary_Contact": "Daren Love", "Yang_Gang_Primary_Contact_Email": "", "Yang_Gang_Regional_Organizer_Email": "oklahoma.yang.gang@gmail.com", "Yang_Gang_Facebook_Group": "https:\/\/www.facebook.com\/groups\/Bville4Yang\/", "Google_Group_Link": "", "Slack_Group_link": "" }, "geometry": null },
{ "type": "Feature", "properties": { "Name": "Pensacola", "City": "Pensacola", "State": "Florida", "Yang_Gang_Primary_Contact": "Christina Laird", "Yang_Gang_Primary_Contact_Email": "pensacola.yang.gang@gmail.com", "Yang_Gang_Regional_Organizer_Email": "florida.yang.gang@gmail.com", "Yang_Gang_Facebook_Group": "https:\/\/www.facebook.com\/groups\/pensacolayanggang\/", "Google_Group_Link": "", "Slack_Group_link": "" }, "geometry": null },
{ "type": "Feature", "properties": { "Name": "Beaverton", "City": "Beaverton", "State": "Oregon", "Yang_Gang_Primary_Contact": "Gina Anzaldua", "Yang_Gang_Primary_Contact_Email": "pdxyanggang@gmail.com", "Yang_Gang_Regional_Organizer_Email": "oregon.yang.gang@gmail.com ", "Yang_Gang_Facebook_Group": "https:\/\/www.facebook.com\/groups\/PortlandORYangGang", "Google_Group_Link": "", "Slack_Group_link": "" }, "geometry": null },
{ "type": "Feature", "properties": { "Name": "Bellingham", "City": "Bellingham", "State": "Washington", "Yang_Gang_Primary_Contact": "David Horwitz", "Yang_Gang_Primary_Contact_Email": "bellingham.yang.gang@gmail.com", "Yang_Gang_Regional_Organizer_Email": "washington.yang.gang@gmail.com", "Yang_Gang_Facebook_Group": "https:\/\/www.facebook.com\/groups\/539192833150908\/", "Google_Group_Link": "", "Slack_Group_link": "" }, "geometry": null },
{ "type": "Feature", "properties": { "Name": "Austin", "City": "Austin", "State": "Texas", "Yang_Gang_Primary_Contact": "Anaami H", "Yang_Gang_Primary_Contact_Email": "anaami@zoho.com", "Yang_Gang_Regional_Organizer_Email": "", "Yang_Gang_Facebook_Group": "https:\/\/www.facebook.com\/groups\/197107194566928\/", "Google_Group_Link": "", "Slack_Group_link": "" }, "geometry": null },
{ "type": "Feature", "properties": { "Name": "Miami", "City": "Miami", "State": "Florida", "Yang_Gang_Primary_Contact": "Luisa Paganini", "Yang_Gang_Primary_Contact_Email": "miamibeach.yang.gang@gmail.com", "Yang_Gang_Regional_Organizer_Email": "florida.yang.gang@gmail.com", "Yang_Gang_Facebook_Group": "https:\/\/www.facebook.com\/groups\/397212194446554\/", "Google_Group_Link": "", "Slack_Group_link": "" }, "geometry": null },
{ "type": "Feature", "properties": { "Name": "Iowa City", "City": "Iowa City", "State": "Iowa", "Yang_Gang_Primary_Contact": "Kyle Kopf", "Yang_Gang_Primary_Contact_Email": "krkopf@gmail.com", "Yang_Gang_Regional_Organizer_Email": "Iowa.Yang.Gang@gmail.com", "Yang_Gang_Facebook_Group": "https:\/\/www.facebook.com\/groups\/441899463243382\/", "Google_Group_Link": "", "Slack_Group_link": "" }, "geometry": null },
{ "type": "Feature", "properties": { "Name": "Brooklyn", "City": "Brooklyn", "State": "New York", "Yang_Gang_Primary_Contact": "Jason Yung", "Yang_Gang_Primary_Contact_Email": "nycyanggang@gmail.com", "Yang_Gang_Regional_Organizer_Email": "newyork.yang.gang@gmail.com", "Yang_Gang_Facebook_Group": "https:\/\/www.facebook.com\/groups\/2088413611448639\/", "Google_Group_Link": "", "Slack_Group_link": "" }, "geometry": null },
{ "type": "Feature", "properties": { "Name": "Birmingham", "City": "Birmingham", "State": "Alabama", "Yang_Gang_Primary_Contact": "David Kennell", "Yang_Gang_Primary_Contact_Email": "birmingham.yang.gang@gmail.com", "Yang_Gang_Regional_Organizer_Email": "alabama.yang.gang@gmail.com", "Yang_Gang_Facebook_Group": "https:\/\/www.facebook.com\/groups\/330310791224694\/", "Google_Group_Link": "", "Slack_Group_link": "" }, "geometry": null },
{ "type": "Feature", "properties": { "Name": "Nebraska", "City": "Nebraska", "State": "Nebraska", "Yang_Gang_Primary_Contact": "Rafael Bicudo", "Yang_Gang_Primary_Contact_Email": "maschieri@gmail.com", "Yang_Gang_Regional_Organizer_Email": "nebraska.yang.gang@gmail.com", "Yang_Gang_Facebook_Group": "https:\/\/www.facebook.com\/groups\/nebraskayanggang\/", "Google_Group_Link": "", "Slack_Group_link": "" }, "geometry": null },
{ "type": "Feature", "properties": { "Name": "Southern Illinois", "City": "Southern Illinois", "State": "Illinios", "Yang_Gang_Primary_Contact": "Michele Dollman", "Yang_Gang_Primary_Contact_Email": "micheledollman@gmail.com", "Yang_Gang_Regional_Organizer_Email": "illinois.yang.gang@gmail.com", "Yang_Gang_Facebook_Group": "https:\/\/www.facebook.com\/groups\/303834766967673", "Google_Group_Link": "", "Slack_Group_link": "" }, "geometry": null },
{ "type": "Feature", "properties": { "Name": "Boise", "City": "Boise", "State": "Idaho", "Yang_Gang_Primary_Contact": "Philip Christiansen", "Yang_Gang_Primary_Contact_Email": "pchrist7@gmail.com", "Yang_Gang_Regional_Organizer_Email": "idaho.yang.gang@gmail.com", "Yang_Gang_Facebook_Group": "https:\/\/www.facebook.com\/groups\/BoiseYangGang", "Google_Group_Link": "", "Slack_Group_link": "" }, "geometry": null },
{ "type": "Feature", "properties": { "Name": "Boulder", "City": "Boulder", "State": "Colorado", "Yang_Gang_Primary_Contact": "Paul Good", "Yang_Gang_Primary_Contact_Email": "", "Yang_Gang_Regional_Organizer_Email": "colorado.yang.gang@gmail.com", "Yang_Gang_Facebook_Group": "https:\/\/www.facebook.com\/groups\/2311775609101565\/", "Google_Group_Link": "", "Slack_Group_link": "" }, "geometry": null },
{ "type": "Feature", "properties": { "Name": "Southeastern Oklahoma", "City": "Southeast Oklahoma", "State": "Oklahoma", "Yang_Gang_Primary_Contact": "William Reeves", "Yang_Gang_Primary_Contact_Email": "", "Yang_Gang_Regional_Organizer_Email": "oklahoma.yang.gang@gmail.com", "Yang_Gang_Facebook_Group": "https:\/\/www.facebook.com\/groups\/266147514313012\/", "Google_Group_Link": "", "Slack_Group_link": "" }, "geometry": null },
{ "type": "Feature", "properties": { "Name": "Burbank", "City": "Burbank", "State": "California", "Yang_Gang_Primary_Contact": "Kinley Orr", "Yang_Gang_Primary_Contact_Email": "socal.yang.gang@gmail.com", "Yang_Gang_Regional_Organizer_Email": "socal.yang.gang@gmail.com", "Yang_Gang_Facebook_Group": "https:\/\/www.facebook.com\/groups\/843523986043007\/", "Google_Group_Link": "", "Slack_Group_link": "" }, "geometry": null },
{ "type": "Feature", "properties": { "Name": "Boston", "City": "Boston", "State": "Massachusetts", "Yang_Gang_Primary_Contact": "Christine Donohue", "Yang_Gang_Primary_Contact_Email": "Boston.Yang.Gang@gmail.com", "Yang_Gang_Regional_Organizer_Email": "Massachusetts.Yang.Gang@gmail.com", "Yang_Gang_Facebook_Group": "https:\/\/www.facebook.com\/groups\/MassachusettsYangGang\/about\/", "Google_Group_Link": "", "Slack_Group_link": "" }, "geometry": null },
{ "type": "Feature", "properties": { "Name": "Camarillo", "City": "Camarillo", "State": "California", "Yang_Gang_Primary_Contact": "Mindy Checkon", "Yang_Gang_Primary_Contact_Email": "socal.yang.gang@gmail.com", "Yang_Gang_Regional_Organizer_Email": "socal.yang.gang@gmail.com", "Yang_Gang_Facebook_Group": "https:\/\/www.facebook.com\/groups\/348745155732320\/", "Google_Group_Link": "", "Slack_Group_link": "" }, "geometry": null },
{ "type": "Feature", "properties": { "Name": "Tokyo", "City": "Tokyo", "State": "Japan", "Yang_Gang_Primary_Contact": "Michael Dela Cruz", "Yang_Gang_Primary_Contact_Email": "mdcruz@gmail.com", "Yang_Gang_Regional_Organizer_Email": "", "Yang_Gang_Facebook_Group": "https:\/\/www.facebook.com\/groups\/yanggangtokyo\/", "Google_Group_Link": "", "Slack_Group_link": "" }, "geometry": null },
{ "type": "Feature", "properties": { "Name": "Capital-Saratoga Region", "City": "Capital-Saratoga Region", "State": "New York", "Yang_Gang_Primary_Contact": "Joshua Daly", "Yang_Gang_Primary_Contact_Email": "crsyanggang@gmail.com", "Yang_Gang_Regional_Organizer_Email": "newyork.yang.gang@gmail.com", "Yang_Gang_Facebook_Group": "https:\/\/www.facebook.com\/groups\/2206924629429088\/", "Google_Group_Link": "", "Slack_Group_link": "" }, "geometry": null },
{ "type": "Feature", "properties": { "Name": "Siouxland", "City": "Siouxland", "State": "Iowa", "Yang_Gang_Primary_Contact": "Jescy Rodriguez", "Yang_Gang_Primary_Contact_Email": "", "Yang_Gang_Regional_Organizer_Email": "Iowa.Yang.Gang@gmail.com", "Yang_Gang_Facebook_Group": "https:\/\/www.facebook.com\/groups\/555973714897200\/about\/", "Google_Group_Link": "", "Slack_Group_link": "" }, "geometry": null },
{ "type": "Feature", "properties": { "Name": "Central New Jersey", "City": "Central New Jersey", "State": "New Jersey", "Yang_Gang_Primary_Contact": "Suzie Tam", "Yang_Gang_Primary_Contact_Email": "suzktam@gmail.com", "Yang_Gang_Regional_Organizer_Email": "", "Yang_Gang_Facebook_Group": "https:\/\/www.facebook.com\/groups\/453760968704490\/", "Google_Group_Link": "", "Slack_Group_link": "" }, "geometry": null },
{ "type": "Feature", "properties": { "Name": "Mansfield", "City": "Mansfield", "State": "Ohio", "Yang_Gang_Primary_Contact": "Tim Grady", "Yang_Gang_Primary_Contact_Email": "timgradyis@gmail.com", "Yang_Gang_Regional_Organizer_Email": "ohio.yang.gang@gmail.com", "Yang_Gang_Facebook_Group": "https:\/\/www.facebook.com\/groups\/792892451065587\/", "Google_Group_Link": "", "Slack_Group_link": "" }, "geometry": null },
{ "type": "Feature", "properties": { "Name": "Chandler", "City": "Chandler", "State": "Arizona", "Yang_Gang_Primary_Contact": "Daniel Shih", "Yang_Gang_Primary_Contact_Email": "danieltshih@gmail.com", "Yang_Gang_Regional_Organizer_Email": "arizona.yang.gang@gmail.com", "Yang_Gang_Facebook_Group": "https:\/\/www.facebook.com\/groups\/chandleryanggang\/", "Google_Group_Link": "", "Slack_Group_link": "" }, "geometry": null },
{ "type": "Feature", "properties": { "Name": "Rockville", "City": "Rockville", "State": "Maryland", "Yang_Gang_Primary_Contact": "Dennis O'Brien", "Yang_Gang_Primary_Contact_Email": "", "Yang_Gang_Regional_Organizer_Email": "maryland.yang.gang@gmail.com", "Yang_Gang_Facebook_Group": "", "Google_Group_Link": "https:\/\/groups.google.com\/forum\/#!forum\/mocoyanggang\/", "Slack_Group_link": "" }, "geometry": null },
{ "type": "Feature", "properties": { "Name": "Key West", "City": "Key West", "State": "Florida", "Yang_Gang_Primary_Contact": "Jason McCoy", "Yang_Gang_Primary_Contact_Email": "Key.West.Yang.Gang@gmail.com", "Yang_Gang_Regional_Organizer_Email": "florida.yang.gang@gmail.com", "Yang_Gang_Facebook_Group": "https:\/\/www.facebook.com\/groups\/479824412557716\/", "Google_Group_Link": "", "Slack_Group_link": "" }, "geometry": null },
{ "type": "Feature", "properties": { "Name": "Charlotte", "City": "Charlotte", "State": "North Carolina", "Yang_Gang_Primary_Contact": "Steve Foster", "Yang_Gang_Primary_Contact_Email": "stevefoster@outlook.com", "Yang_Gang_Regional_Organizer_Email": "NC.Yang.Gang@gmail.com ", "Yang_Gang_Facebook_Group": "https:\/\/www.facebook.com\/groups\/CharlotteYangGang", "Google_Group_Link": "", "Slack_Group_link": "" }, "geometry": null },
{ "type": "Feature", "properties": { "Name": "Chattanooga", "City": "Chattanooga", "State": "Tennessee", "Yang_Gang_Primary_Contact": "Justin Priest", "Yang_Gang_Primary_Contact_Email": "", "Yang_Gang_Regional_Organizer_Email": "tennessee.yang.gang@gmail.com", "Yang_Gang_Facebook_Group": "https:\/\/www.facebook.com\/groups\/781153035573701\/", "Google_Group_Link": "", "Slack_Group_link": "" }, "geometry": null },
{ "type": "Feature", "properties": { "Name": "Upper Marlboro", "City": "Upper Marlboro", "State": "Maryland", "Yang_Gang_Primary_Contact": "Duren Harmon", "Yang_Gang_Primary_Contact_Email": "", "Yang_Gang_Regional_Organizer_Email": "maryland.yang.gang@gmail.com", "Yang_Gang_Facebook_Group": "https:\/\/www.facebook.com\/groups\/2066301540105477\/", "Google_Group_Link": "", "Slack_Group_link": "" }, "geometry": null },
{ "type": "Feature", "properties": { "Name": "Chicago", "City": "Chicago", "State": "Illinos", "Yang_Gang_Primary_Contact": "Simon Urbeitis", "Yang_Gang_Primary_Contact_Email": "Chicagoyanggang@gmail.com", "Yang_Gang_Regional_Organizer_Email": "illinois.yang.gang@gmail.com", "Yang_Gang_Facebook_Group": "https:\/\/www.facebook.com\/groups\/586764665116254\/", "Google_Group_Link": "", "Slack_Group_link": "" }, "geometry": null },
{ "type": "Feature", "properties": { "Name": "St. Louis", "City": "St. Louis", "State": "Missouri", "Yang_Gang_Primary_Contact": "Steve Telle", "Yang_Gang_Primary_Contact_Email": "", "Yang_Gang_Regional_Organizer_Email": "missouri.yang.gang@gmail.com", "Yang_Gang_Facebook_Group": "https:\/\/www.facebook.com\/groups\/2214015258849938\/", "Google_Group_Link": "", "Slack_Group_link": "" }, "geometry": null },
{ "type": "Feature", "properties": { "Name": "Citrus Heights", "City": "Citrus Heights", "State": "California", "Yang_Gang_Primary_Contact": "Damein Hedgpeth", "Yang_Gang_Primary_Contact_Email": "thedanress@aol.com", "Yang_Gang_Regional_Organizer_Email": "socal.yang.gang@gmail.com", "Yang_Gang_Facebook_Group": "https:\/\/www.facebook.com\/groups\/2064847440230998\/", "Google_Group_Link": "", "Slack_Group_link": "" }, "geometry": null },
{ "type": "Feature", "properties": { "Name": "Columbus", "City": "Columbus", "State": "Indiana", "Yang_Gang_Primary_Contact": "Lee Shipman", "Yang_Gang_Primary_Contact_Email": "", "Yang_Gang_Regional_Organizer_Email": "indy.yang.gang@gmail.com", "Yang_Gang_Facebook_Group": "https:\/\/www.facebook.com\/groups\/260344748235783\/", "Google_Group_Link": "", "Slack_Group_link": "" }, "geometry": null },
{ "type": "Feature", "properties": { "Name": "Alsace", "City": "Alsace", "State": "France", "Yang_Gang_Primary_Contact": "Thierry Ehrismann", "Yang_Gang_Primary_Contact_Email": "ehristerry@hotmail.fr", "Yang_Gang_Regional_Organizer_Email": "", "Yang_Gang_Facebook_Group": "https:\/\/www.facebook.com\/groups\/386697438586408\/", "Google_Group_Link": "", "Slack_Group_link": "" }, "geometry": null },
{ "type": "Feature", "properties": { "Name": "Colorado Springs", "City": "Colorado Springs", "State": "Colorado", "Yang_Gang_Primary_Contact": "Johanna Graclik ", "Yang_Gang_Primary_Contact_Email": "", "Yang_Gang_Regional_Organizer_Email": "colorado.yang.gang@gmail.com", "Yang_Gang_Facebook_Group": "https:\/\/m.facebook.com\/groups\/355459871718177?ref=share", "Google_Group_Link": "", "Slack_Group_link": "" }, "geometry": null },
{ "type": "Feature", "properties": { "Name": "Raleigh \/ Durham", "City": "Raleigh \/ Durham", "State": "North Carolina", "Yang_Gang_Primary_Contact": "Russell Jory", "Yang_Gang_Primary_Contact_Email": "raleighdurham.yang.gang@gmail.com", "Yang_Gang_Regional_Organizer_Email": "NC.Yang.Gang@gmail.com ", "Yang_Gang_Facebook_Group": "https:\/\/www.facebook.com\/groups\/2263222820631886\/?ref=share", "Google_Group_Link": "", "Slack_Group_link": "" }, "geometry": null },
{ "type": "Feature", "properties": { "Name": "Wisconsin", "City": "Wisconsin", "State": "Wisconsin", "Yang_Gang_Primary_Contact": "Erin Armata (Ray)", "Yang_Gang_Primary_Contact_Email": "", "Yang_Gang_Regional_Organizer_Email": "wisconsin.yang.gang@gmail.com", "Yang_Gang_Facebook_Group": "https:\/\/www.facebook.com\/groups\/356465668419187\/", "Google_Group_Link": "", "Slack_Group_link": "" }, "geometry": null },
{ "type": "Feature", "properties": { "Name": "Mankato", "City": "Mankato", "State": "Minnesota", "Yang_Gang_Primary_Contact": "Isaac Kerry", "Yang_Gang_Primary_Contact_Email": "isaac.kerry@gmail.com", "Yang_Gang_Regional_Organizer_Email": "minnesota.yang.gang@gmail.com", "Yang_Gang_Facebook_Group": "https:\/\/www.facebook.com\/groups\/305133470198874\/", "Google_Group_Link": "", "Slack_Group_link": "" }, "geometry": null },
{ "type": "Feature", "properties": { "Name": "Concord", "City": "Concord", "State": "New Hampshire", "Yang_Gang_Primary_Contact": "Sam Hayden", "Yang_Gang_Primary_Contact_Email": "concordnh.yang.gang@gmail.com", "Yang_Gang_Regional_Organizer_Email": "NewHampshire.Yang.Gang@gmail.com", "Yang_Gang_Facebook_Group": "", "Google_Group_Link": "", "Slack_Group_link": "" }, "geometry": null },
{ "type": "Feature", "properties": { "Name": "Suffolk", "City": "Suffolk", "State": "New York", "Yang_Gang_Primary_Contact": "Joseph Falquecee", "Yang_Gang_Primary_Contact_Email": "linyyanggang@gmail.com", "Yang_Gang_Regional_Organizer_Email": "newyork.yang.gang@gmail.com", "Yang_Gang_Facebook_Group": "https:\/\/www.facebook.com\/groups\/2163024370675389\/", "Google_Group_Link": "", "Slack_Group_link": "" }, "geometry": null },
{ "type": "Feature", "properties": { "Name": "Corvallis", "City": "Corvallis", "State": "Oregon", "Yang_Gang_Primary_Contact": "", "Yang_Gang_Primary_Contact_Email": "", "Yang_Gang_Regional_Organizer_Email": "oregon.yang.gang@gmail.com ", "Yang_Gang_Facebook_Group": "", "Google_Group_Link": "https:\/\/groups.google.com\/forum\/#!forum\/yang2020corvallis", "Slack_Group_link": "" }, "geometry": null },
{ "type": "Feature", "properties": { "Name": "Jersey City", "City": "Jersey City", "State": "New Jersey", "Yang_Gang_Primary_Contact": "Enrique Glotzer", "Yang_Gang_Primary_Contact_Email": "enrique.glotzer@gmail.com", "Yang_Gang_Regional_Organizer_Email": "", "Yang_Gang_Facebook_Group": "https:\/\/www.facebook.com\/groups\/2252069578408847\/", "Google_Group_Link": "", "Slack_Group_link": "" }, "geometry": null },
{ "type": "Feature", "properties": { "Name": "Houston", "City": "Houston", "State": "Texas", "Yang_Gang_Primary_Contact": "Tiffany Yao", "Yang_Gang_Primary_Contact_Email": "houstonyanggang2020@gmail.com ", "Yang_Gang_Regional_Organizer_Email": "", "Yang_Gang_Facebook_Group": "https:\/\/www.facebook.com\/groups\/2268047493438365\/", "Google_Group_Link": "", "Slack_Group_link": "" }, "geometry": null },
{ "type": "Feature", "properties": { "Name": "Omaha", "City": "Omaha", "State": "Nebraska", "Yang_Gang_Primary_Contact": "Zac Walsh", "Yang_Gang_Primary_Contact_Email": "zacwalsh1288@gmail.com", "Yang_Gang_Regional_Organizer_Email": "nebraska.yang.gang@gmail.com", "Yang_Gang_Facebook_Group": "https:\/\/www.facebook.com\/groups\/2034426350000746\/", "Google_Group_Link": "", "Slack_Group_link": "" }, "geometry": null },
{ "type": "Feature", "properties": { "Name": "Wilmington", "City": "Wilmington", "State": "Delaware", "Yang_Gang_Primary_Contact": "Jon Limm ", "Yang_Gang_Primary_Contact_Email": "wilmington.yang.gang@gmail.com", "Yang_Gang_Regional_Organizer_Email": "delaware.yang.gang@gmail.com", "Yang_Gang_Facebook_Group": "https:\/\/www.facebook.com\/groups\/wilmingtonyanggang ", "Google_Group_Link": "", "Slack_Group_link": "" }, "geometry": null },
{ "type": "Feature", "properties": { "Name": "Denver", "City": "Denver", "State": "Colorado", "Yang_Gang_Primary_Contact": "Tamu Harvey", "Yang_Gang_Primary_Contact_Email": "", "Yang_Gang_Regional_Organizer_Email": "colorado.yang.gang@gmail.com", "Yang_Gang_Facebook_Group": "https:\/\/www.facebook.com\/groups\/261202194793436", "Google_Group_Link": "", "Slack_Group_link": "" }, "geometry": null },
{ "type": "Feature", "properties": { "Name": "Chambana", "City": "Chambana", "State": "Illinois", "Yang_Gang_Primary_Contact": "Alex Rodriguez", "Yang_Gang_Primary_Contact_Email": "alexadolphson@gmail.com", "Yang_Gang_Regional_Organizer_Email": "illinois.yang.gang@gmail.com", "Yang_Gang_Facebook_Group": "https:\/\/www.facebook.com\/groups\/cuyanggang\/", "Google_Group_Link": "", "Slack_Group_link": "" }, "geometry": null },
{ "type": "Feature", "properties": { "Name": "Downtown Portland", "City": "Downtown Portland", "State": "Oregon", "Yang_Gang_Primary_Contact": "Eli Johnson", "Yang_Gang_Primary_Contact_Email": "pdxyanggang@gmail.com", "Yang_Gang_Regional_Organizer_Email": "oregon.yang.gang@gmail.com ", "Yang_Gang_Facebook_Group": "https:\/\/www.facebook.com\/groups\/PortlandORYangGang", "Google_Group_Link": "", "Slack_Group_link": "" }, "geometry": null },
{ "type": "Feature", "properties": { "Name": "Parma", "City": "Parma", "State": "Ohio", "Yang_Gang_Primary_Contact": "Stefan Stefaniuk", "Yang_Gang_Primary_Contact_Email": "stefaniuksp@gmail.com", "Yang_Gang_Regional_Organizer_Email": "ohio.yang.gang@gmail.com", "Yang_Gang_Facebook_Group": "https:\/\/www.facebook.com\/groups\/ParmaYangGang", "Google_Group_Link": "", "Slack_Group_link": "" }, "geometry": null },
{ "type": "Feature", "properties": { "Name": "Glenwood", "City": "Glenwood", "State": "Iowa", "Yang_Gang_Primary_Contact": "Scott Brown", "Yang_Gang_Primary_Contact_Email": "sbrown912@gmail.com", "Yang_Gang_Regional_Organizer_Email": "Iowa.Yang.Gang@gmail.com", "Yang_Gang_Facebook_Group": "https:\/\/www.facebook.com\/groups\/403688750420653", "Google_Group_Link": "", "Slack_Group_link": "" }, "geometry": null },
{ "type": "Feature", "properties": { "Name": "East Side Seattle", "City": "East Side Seattle", "State": "Washington", "Yang_Gang_Primary_Contact": "Kerry Bosworth", "Yang_Gang_Primary_Contact_Email": "eastseattle@organizeforyang.org", "Yang_Gang_Regional_Organizer_Email": "washington.yang.gang@gmail.com", "Yang_Gang_Facebook_Group": "https:\/\/www.facebook.com\/groups\/227362868166402\/", "Google_Group_Link": "", "Slack_Group_link": "" }, "geometry": null },
{ "type": "Feature", "properties": { "Name": "Mesquite", "City": "Mesquite", "State": "Texas", "Yang_Gang_Primary_Contact": "Ikey Slate", "Yang_Gang_Primary_Contact_Email": "IkeySlate60@gmail.com", "Yang_Gang_Regional_Organizer_Email": "", "Yang_Gang_Facebook_Group": "https:\/\/www.facebook.com\/groups\/YangGangTexas", "Google_Group_Link": "", "Slack_Group_link": "" }, "geometry": null },
{ "type": "Feature", "properties": { "Name": "Eastside L.A. ", "City": "Northeast Los Angeles (Highland Park\/Eagle Rock)", "State": "California", "Yang_Gang_Primary_Contact": "Zak Stoltz", "Yang_Gang_Primary_Contact_Email": "socal.yang.gang@gmail.com", "Yang_Gang_Regional_Organizer_Email": "socal.yang.gang@gmail.com", "Yang_Gang_Facebook_Group": "https:\/\/www.facebook.com\/groups\/NELAyanggang\/", "Google_Group_Link": "", "Slack_Group_link": "" }, "geometry": null },
{ "type": "Feature", "properties": { "Name": "Edmund", "City": "Edmund", "State": "Oklahoma", "Yang_Gang_Primary_Contact": "Lee Gray", "Yang_Gang_Primary_Contact_Email": "", "Yang_Gang_Regional_Organizer_Email": "oklahoma.yang.gang@gmail.com", "Yang_Gang_Facebook_Group": "https:\/\/www.facebook.com\/groups\/2308785326020320\/?ref=bookmarks", "Google_Group_Link": "", "Slack_Group_link": "" }, "geometry": null },
{ "type": "Feature", "properties": { "Name": "Fairfax", "City": "Fairfax", "State": "Virginia", "Yang_Gang_Primary_Contact": "Chris Dobrogosz", "Yang_Gang_Primary_Contact_Email": "cdobrogosz@gmail.com", "Yang_Gang_Regional_Organizer_Email": "Virginia.yang.gang@gmail.com", "Yang_Gang_Facebook_Group": "https:\/\/www.facebook.com\/groups\/690040208060226\/about\/", "Google_Group_Link": "", "Slack_Group_link": "" }, "geometry": null },
{ "type": "Feature", "properties": { "Name": "Newark", "City": "Newark", "State": "New Jersey", "Yang_Gang_Primary_Contact": "Quintus Jett", "Yang_Gang_Primary_Contact_Email": "newark@organizeforyang.org", "Yang_Gang_Regional_Organizer_Email": "", "Yang_Gang_Facebook_Group": "https:\/\/www.facebook.com\/groups\/YangNewarkMetro\/", "Google_Group_Link": "", "Slack_Group_link": "" }, "geometry": null },
{ "type": "Feature", "properties": { "Name": "Farmington", "City": "Farmington", "State": "Connecticut", "Yang_Gang_Primary_Contact": "Evan Chekas", "Yang_Gang_Primary_Contact_Email": "", "Yang_Gang_Regional_Organizer_Email": "Connecticut.Yang.Gang@gmail.com", "Yang_Gang_Facebook_Group": "", "Google_Group_Link": "", "Slack_Group_link": "" }, "geometry": null },
{ "type": "Feature", "properties": { "Name": "Bentonville", "City": "Bentonville", "State": "Arkansas", "Yang_Gang_Primary_Contact": "Colten Lane", "Yang_Gang_Primary_Contact_Email": "", "Yang_Gang_Regional_Organizer_Email": "arkansas.yang.gang@gmail.com", "Yang_Gang_Facebook_Group": "https:\/\/www.facebook.com\/groups\/404014763712198\/", "Google_Group_Link": "", "Slack_Group_link": "" }, "geometry": null },
{ "type": "Feature", "properties": { "Name": "Cleveland", "City": "Cleveland", "State": "Ohio", "Yang_Gang_Primary_Contact": "Madeleine Zimmermann", "Yang_Gang_Primary_Contact_Email": "mxmzimmermann@gmail.com", "Yang_Gang_Regional_Organizer_Email": "ohio.yang.gang@gmail.com", "Yang_Gang_Facebook_Group": "http:\/\/www.facebook.com\/groups\/CLEYangGang", "Google_Group_Link": "", "Slack_Group_link": "" }, "geometry": null },
{ "type": "Feature", "properties": { "Name": "Fresno", "City": "Fresno", "State": "California", "Yang_Gang_Primary_Contact": "Isaiah Pacheco", "Yang_Gang_Primary_Contact_Email": "Fresno.yang.gang@gmail.com", "Yang_Gang_Regional_Organizer_Email": "socal.yang.gang@gmail.com", "Yang_Gang_Facebook_Group": "https:\/\/www.facebook.com\/groups\/431152034102709\/", "Google_Group_Link": "", "Slack_Group_link": "" }, "geometry": null },
{ "type": "Feature", "properties": { "Name": "Gainesville", "City": "Gainesville", "State": "Florida", "Yang_Gang_Primary_Contact": "Lance Carlton", "Yang_Gang_Primary_Contact_Email": "gainesville.yang.gang@gmail.com", "Yang_Gang_Regional_Organizer_Email": "florida.yang.gang@gmail.com", "Yang_Gang_Facebook_Group": "https:\/\/www.facebook.com\/groups\/gainesvilleyanggang\/", "Google_Group_Link": "", "Slack_Group_link": "" }, "geometry": null },
{ "type": "Feature", "properties": { "Name": "Taipei", "City": "Taipei", "State": "Taiwan ", "Yang_Gang_Primary_Contact": "Peter Wang", "Yang_Gang_Primary_Contact_Email": "peterkcwang@gmail.com", "Yang_Gang_Regional_Organizer_Email": "", "Yang_Gang_Facebook_Group": "https:\/\/www.facebook.com\/groups\/312373652807746\/", "Google_Group_Link": "", "Slack_Group_link": "" }, "geometry": null },
{ "type": "Feature", "properties": { "Name": "Gilbert", "City": "Gilbert", "State": "Arizona", "Yang_Gang_Primary_Contact": "Danny Weatherly", "Yang_Gang_Primary_Contact_Email": "Gilbert.yang.gang@gmail.com", "Yang_Gang_Regional_Organizer_Email": "arizona.yang.gang@gmail.com", "Yang_Gang_Facebook_Group": "https:\/\/www.facebook.com\/groups\/891219421228828\/about\/", "Google_Group_Link": "", "Slack_Group_link": "" }, "geometry": null },
{ "type": "Feature", "properties": { "Name": "Great Falls", "City": "Great Falls", "State": "Montana", "Yang_Gang_Primary_Contact": "Christen Hamilton", "Yang_Gang_Primary_Contact_Email": "Crhamilton90@gmail.com", "Yang_Gang_Regional_Organizer_Email": "montana.yang.gang@gmail.com", "Yang_Gang_Facebook_Group": "http:\/\/www.facebook.com\/groups\/gfmtyanggang", "Google_Group_Link": "", "Slack_Group_link": "" }, "geometry": null },
{ "type": "Feature", "properties": { "Name": "Oakwood", "City": "Oakwood", "State": "Ohio", "Yang_Gang_Primary_Contact": "Benny Caruso", "Yang_Gang_Primary_Contact_Email": "bennycaruso119@gmail.com", "Yang_Gang_Regional_Organizer_Email": "ohio.yang.gang@gmail.com", "Yang_Gang_Facebook_Group": "", "Google_Group_Link": "https:\/\/oakwoodyanggang2020.slack.com\/", "Slack_Group_link": "" }, "geometry": null },
{ "type": "Feature", "properties": { "Name": "Charleston", "City": "Charleston", "State": "South Carolina", "Yang_Gang_Primary_Contact": "Edward Fisher", "Yang_Gang_Primary_Contact_Email": "edwardsfisher@yahoo.com", "Yang_Gang_Regional_Organizer_Email": "southcarolina.yang.gang@gmail.com", "Yang_Gang_Facebook_Group": "https:\/\/www.facebook.com\/groups\/charlestonsouthcarolinayanggang\/", "Google_Group_Link": "", "Slack_Group_link": "" }, "geometry": null },
{ "type": "Feature", "properties": { "Name": "Seacoast", "City": "Seacoast", "State": "New Hampshire", "Yang_Gang_Primary_Contact": "Jonathan Cummings", "Yang_Gang_Primary_Contact_Email": "Seacoast.NH.Yang.Gang@gmail.com", "Yang_Gang_Regional_Organizer_Email": "NewHampshire.Yang.Gang@gmail.com", "Yang_Gang_Facebook_Group": "https:\/\/www.facebook.com\/groups\/2254011294863108\/", "Google_Group_Link": "", "Slack_Group_link": "" }, "geometry": null },
{ "type": "Feature", "properties": { "Name": "Fairfield", "City": "Fairfield", "State": "Connecticut", "Yang_Gang_Primary_Contact": "Glenn Tauss", "Yang_Gang_Primary_Contact_Email": "FairfieldCT.Yang.Gang@gmail.com", "Yang_Gang_Regional_Organizer_Email": "Connecticut.Yang.Gang@gmail.com", "Yang_Gang_Facebook_Group": "https:\/\/www.facebook.com\/groups\/2073740212733618\/", "Google_Group_Link": "", "Slack_Group_link": "" }, "geometry": null },
{ "type": "Feature", "properties": { "Name": "Maplewood", "City": "Maplewood", "State": "New Jersey", "Yang_Gang_Primary_Contact": "Grant Diamond", "Yang_Gang_Primary_Contact_Email": "grant.a.diamond@gmail.com", "Yang_Gang_Regional_Organizer_Email": "", "Yang_Gang_Facebook_Group": "https:\/\/www.facebook.com\/groups\/766398167065391", "Google_Group_Link": "", "Slack_Group_link": "" }, "geometry": null },
{ "type": "Feature", "properties": { "Name": "Hoboken", "City": "Hoboken", "State": "New Jersey", "Yang_Gang_Primary_Contact": "Salimi Moghaddam", "Yang_Gang_Primary_Contact_Email": "hamed.salimi@gmail.com", "Yang_Gang_Regional_Organizer_Email": "", "Yang_Gang_Facebook_Group": "https:\/\/www.facebook.com\/groups\/797437170634121\/", "Google_Group_Link": "", "Slack_Group_link": "" }, "geometry": null },
{ "type": "Feature", "properties": { "Name": "Katy", "City": "Katy", "State": "Texas", "Yang_Gang_Primary_Contact": "Manu Ramineni", "Yang_Gang_Primary_Contact_Email": "manu@ramineni.name", "Yang_Gang_Regional_Organizer_Email": "", "Yang_Gang_Facebook_Group": "https:\/\/www.facebook.com\/groups\/951290901927937\/", "Google_Group_Link": "", "Slack_Group_link": "" }, "geometry": null },
{ "type": "Feature", "properties": { "Name": "Rhode ISland", "City": "Rhode Island", "State": "Rhode Island", "Yang_Gang_Primary_Contact": "Katie Gordon", "Yang_Gang_Primary_Contact_Email": "katiegordon@outlook.com", "Yang_Gang_Regional_Organizer_Email": "RhodeIsland.Yang.Gang@gmail.com", "Yang_Gang_Facebook_Group": "https:\/\/www.facebook.com\/groups\/rhodyyanggang\/", "Google_Group_Link": "", "Slack_Group_link": "" }, "geometry": null },
{ "type": "Feature", "properties": { "Name": "Humboldt", "City": "Humboldt", "State": "California", "Yang_Gang_Primary_Contact": "Miles Raymer", "Yang_Gang_Primary_Contact_Email": "raymer.miles@gmail.com", "Yang_Gang_Regional_Organizer_Email": "socal.yang.gang@gmail.com", "Yang_Gang_Facebook_Group": "https:\/\/www.facebook.com\/groups\/2179926332322559\/", "Google_Group_Link": "", "Slack_Group_link": "" }, "geometry": null },
{ "type": "Feature", "properties": { "Name": "Troy", "City": "Troy", "State": "Michigan", "Yang_Gang_Primary_Contact": "Andy Feng", "Yang_Gang_Primary_Contact_Email": "", "Yang_Gang_Regional_Organizer_Email": "michigan.yang.gang@gmail.com", "Yang_Gang_Facebook_Group": "https:\/\/www.facebook.com\/groups\/570545290114020\/", "Google_Group_Link": "", "Slack_Group_link": "" }, "geometry": null },
{ "type": "Feature", "properties": { "Name": "Indianapolis", "City": "Indianapolis", "State": "Indiana", "Yang_Gang_Primary_Contact": "Paula Strait", "Yang_Gang_Primary_Contact_Email": "doctor.strait@gmail.com", "Yang_Gang_Regional_Organizer_Email": "indy.yang.gang@gmail.com", "Yang_Gang_Facebook_Group": "https:\/\/www.facebook.com\/groups\/2338068736448587\/", "Google_Group_Link": "", "Slack_Group_link": "" }, "geometry": null },
{ "type": "Feature", "properties": { "Name": "Duluth", "City": "Duluth", "State": "Minnesota", "Yang_Gang_Primary_Contact": "Ormonde Cragun", "Yang_Gang_Primary_Contact_Email": "ocragun@gmail.com", "Yang_Gang_Regional_Organizer_Email": "minnesota.yang.gang@gmail.com", "Yang_Gang_Facebook_Group": "https:\/\/www.facebook.com\/groups\/2040076149620103\/", "Google_Group_Link": "", "Slack_Group_link": "" }, "geometry": null },
{ "type": "Feature", "properties": { "Name": "Winston-Salem", "City": "Winston-Salem", "State": "North Carolina", "Yang_Gang_Primary_Contact": "Michael Joyce", "Yang_Gang_Primary_Contact_Email": "", "Yang_Gang_Regional_Organizer_Email": "NC.Yang.Gang@gmail.com ", "Yang_Gang_Facebook_Group": "https:\/\/www.facebook.com\/groups\/2399632620256611\/", "Google_Group_Link": "", "Slack_Group_link": "" }, "geometry": null },
{ "type": "Feature", "properties": { "Name": "Fayetteville", "City": "Fayetteville", "State": "North Carolina", "Yang_Gang_Primary_Contact": "Rhonda Beattie", "Yang_Gang_Primary_Contact_Email": "", "Yang_Gang_Regional_Organizer_Email": "NC.Yang.Gang@gmail.com ", "Yang_Gang_Facebook_Group": "https:\/\/www.facebook.com\/groups\/588998884839101\/", "Google_Group_Link": "", "Slack_Group_link": "" }, "geometry": null },
{ "type": "Feature", "properties": { "Name": "Lehigh Valley", "City": "Lehigh Valley", "State": "Pennsylvania", "Yang_Gang_Primary_Contact": "Eric Stoveken", "Yang_Gang_Primary_Contact_Email": "emstoveken@gmail.com", "Yang_Gang_Regional_Organizer_Email": "", "Yang_Gang_Facebook_Group": "https:\/\/www.facebook.com\/groups\/LVYang2020\/", "Google_Group_Link": "", "Slack_Group_link": "" }, "geometry": null },
{ "type": "Feature", "properties": { "Name": "New Castle", "City": "New Castle", "State": "Pennsylvania", "Yang_Gang_Primary_Contact": "Brian Stein", "Yang_Gang_Primary_Contact_Email": "brian.m.stein@gmail.com", "Yang_Gang_Regional_Organizer_Email": "", "Yang_Gang_Facebook_Group": "https:\/\/www.facebook.com\/groups\/NewCastleYangGang\/", "Google_Group_Link": "", "Slack_Group_link": "" }, "geometry": null },
{ "type": "Feature", "properties": { "Name": "Cincinnati", "City": "Cincinnati", "State": "Ohio", "Yang_Gang_Primary_Contact": "Lynn Leaf", "Yang_Gang_Primary_Contact_Email": "Lynnforscience@gmail.com", "Yang_Gang_Regional_Organizer_Email": "ohio.yang.gang@gmail.com", "Yang_Gang_Facebook_Group": "https:\/\/www.facebook.com\/groups\/2346441675585974\/", "Google_Group_Link": "", "Slack_Group_link": "" }, "geometry": null },
{ "type": "Feature", "properties": { "Name": "Madison", "City": "Madison", "State": "Wisconsin", "Yang_Gang_Primary_Contact": "Charles Van Fleet", "Yang_Gang_Primary_Contact_Email": "charlesvanfleet@gmail.com", "Yang_Gang_Regional_Organizer_Email": "wisconsin.yang.gang@gmail.com", "Yang_Gang_Facebook_Group": "https:\/\/www.facebook.com\/groups\/653852408402828\/", "Google_Group_Link": "", "Slack_Group_link": "" }, "geometry": null },
{ "type": "Feature", "properties": { "Name": "Springfield", "City": "Springfield", "State": "Missouri", "Yang_Gang_Primary_Contact": "Terry Rucker", "Yang_Gang_Primary_Contact_Email": "springfield.yanggang@gmail.com", "Yang_Gang_Regional_Organizer_Email": "missouri.yang.gang@gmail.com", "Yang_Gang_Facebook_Group": "https:\/\/www.facebook.com\/groups\/382238345719992\/", "Google_Group_Link": "", "Slack_Group_link": "" }, "geometry": null },
{ "type": "Feature", "properties": { "Name": "Belton", "City": "Belton", "State": "Texas", "Yang_Gang_Primary_Contact": "Araceli Cortina", "Yang_Gang_Primary_Contact_Email": "araceli.cortina@yahoo.com", "Yang_Gang_Regional_Organizer_Email": "", "Yang_Gang_Facebook_Group": "https:\/\/m.facebook.com\/groups\/552482721921805", "Google_Group_Link": "", "Slack_Group_link": "" }, "geometry": null },
{ "type": "Feature", "properties": { "Name": "Northwest Arkansas", "City": "Northwest Arkansas", "State": "Arkansas", "Yang_Gang_Primary_Contact": "Dylan Siers", "Yang_Gang_Primary_Contact_Email": "", "Yang_Gang_Regional_Organizer_Email": "arkansas.yang.gang@gmail.com", "Yang_Gang_Facebook_Group": "https:\/\/www.facebook.com\/groups\/742919596123945\/", "Google_Group_Link": "", "Slack_Group_link": "" }, "geometry": null },
{ "type": "Feature", "properties": { "Name": "Brevard County", "City": "Brevard County", "State": "Florida", "Yang_Gang_Primary_Contact": "Paul Milakeve", "Yang_Gang_Primary_Contact_Email": "BrevardCounty.Yang.Gang@gmail.com", "Yang_Gang_Regional_Organizer_Email": "florida.yang.gang@gmail.com", "Yang_Gang_Facebook_Group": "https:\/\/www.facebook.com\/groups\/262142971390907\/", "Google_Group_Link": "", "Slack_Group_link": "" }, "geometry": null },
{ "type": "Feature", "properties": { "Name": "Kitsap County", "City": "Kitsap County", "State": "Washington", "Yang_Gang_Primary_Contact": "Leonard Accos", "Yang_Gang_Primary_Contact_Email": "", "Yang_Gang_Regional_Organizer_Email": "washington.yang.gang@gmail.com", "Yang_Gang_Facebook_Group": "https:\/\/www.facebook.com\/groups\/2182251648535455\/about\/", "Google_Group_Link": "", "Slack_Group_link": "" }, "geometry": null },
{ "type": "Feature", "properties": { "Name": "Knoxville", "City": "Knoxville", "State": "Tennessee", "Yang_Gang_Primary_Contact": "Allen Straith", "Yang_Gang_Primary_Contact_Email": "Knoxville.Yang.Gang@gmail.com", "Yang_Gang_Regional_Organizer_Email": "tennessee.yang.gang@gmail.com", "Yang_Gang_Facebook_Group": "https:\/\/www.facebook.com\/groups\/456672061829705\/?ref=share", "Google_Group_Link": "", "Slack_Group_link": "" }, "geometry": null },
{ "type": "Feature", "properties": { "Name": "Lafayette", "City": "Lafayette", "State": "Louisiana", "Yang_Gang_Primary_Contact": "Katy Dupre", "Yang_Gang_Primary_Contact_Email": "", "Yang_Gang_Regional_Organizer_Email": "louisiana.yang.gang@gmail.com", "Yang_Gang_Facebook_Group": "https:\/\/www.facebook.com\/groups\/370559953526661\/", "Google_Group_Link": "", "Slack_Group_link": "" }, "geometry": null },
{ "type": "Feature", "properties": { "Name": "Rock Hill", "City": "Rock Hill", "State": "South Carolina", "Yang_Gang_Primary_Contact": "Sam Mcdonald", "Yang_Gang_Primary_Contact_Email": "sambomb28@gmail.com", "Yang_Gang_Regional_Organizer_Email": "southcarolina.yang.gang@gmail.com", "Yang_Gang_Facebook_Group": "https:\/\/www.facebook.com\/groups\/1112273112267841\/?ref=share", "Google_Group_Link": "", "Slack_Group_link": "" }, "geometry": null },
{ "type": "Feature", "properties": { "Name": "Las Vegas", "City": "Las Vegas", "State": "Nevada", "Yang_Gang_Primary_Contact": "Michael Root", "Yang_Gang_Primary_Contact_Email": "rootguitar@gmail.com", "Yang_Gang_Regional_Organizer_Email": "", "Yang_Gang_Facebook_Group": "https:\/\/www.facebook.com\/groups\/1001252440064844\/", "Google_Group_Link": "", "Slack_Group_link": "" }, "geometry": null },
{ "type": "Feature", "properties": { "Name": "Jacksonville", "City": "Jacksonville", "State": "Florida", "Yang_Gang_Primary_Contact": "Michael Belle", "Yang_Gang_Primary_Contact_Email": "jacksonville.yang.gang@gmail.com", "Yang_Gang_Regional_Organizer_Email": "florida.yang.gang@gmail.com", "Yang_Gang_Facebook_Group": "https:\/\/www.facebook.com\/groups\/jacksonvilleyanggang\/", "Google_Group_Link": "https:\/\/groups.google.com\/forum\/#!forum\/jacksonville-yang-gang", "Slack_Group_link": "" }, "geometry": null },
{ "type": "Feature", "properties": { "Name": "Manchester", "City": "Manchester", "State": "New Hampshire", "Yang_Gang_Primary_Contact": "Kyle Ross", "Yang_Gang_Primary_Contact_Email": "", "Yang_Gang_Regional_Organizer_Email": "NewHampshire.Yang.Gang@gmail.com", "Yang_Gang_Facebook_Group": "https:\/\/www.facebook.com\/groups\/1176891639136905\/", "Google_Group_Link": "", "Slack_Group_link": "" }, "geometry": null },
{ "type": "Feature", "properties": { "Name": "Osage County", "City": "Osage County", "State": "Oklahoma", "Yang_Gang_Primary_Contact": "Chayton Moon", "Yang_Gang_Primary_Contact_Email": "", "Yang_Gang_Regional_Organizer_Email": "oklahoma.yang.gang@gmail.com", "Yang_Gang_Facebook_Group": "https:\/\/www.facebook.com\/groups\/yanggangosage", "Google_Group_Link": "", "Slack_Group_link": "" }, "geometry": null },
{ "type": "Feature", "properties": { "Name": "Little Rock", "City": "Little Rock", "State": "Arkansas", "Yang_Gang_Primary_Contact": "James Stuart", "Yang_Gang_Primary_Contact_Email": "", "Yang_Gang_Regional_Organizer_Email": "arkansas.yang.gang@gmail.com", "Yang_Gang_Facebook_Group": "https:\/\/www.facebook.com\/groups\/883284075377144\/", "Google_Group_Link": "", "Slack_Group_link": "" }, "geometry": null },
{ "type": "Feature", "properties": { "Name": "Long Beach Yang Gang", "City": "Long Beach", "State": "California", "Yang_Gang_Primary_Contact": "Jenna Lloyd", "Yang_Gang_Primary_Contact_Email": "socal.yang.gang@gmail.com", "Yang_Gang_Regional_Organizer_Email": "socal.yang.gang@gmail.com", "Yang_Gang_Facebook_Group": "https:\/\/www.facebook.com\/groups\/longbeachyg\/", "Google_Group_Link": "", "Slack_Group_link": "" }, "geometry": null },
{ "type": "Feature", "properties": { "Name": "Lopez Island", "City": "Lopez Island", "State": "Washington", "Yang_Gang_Primary_Contact": "Jacob Wood", "Yang_Gang_Primary_Contact_Email": "", "Yang_Gang_Regional_Organizer_Email": "washington.yang.gang@gmail.com", "Yang_Gang_Facebook_Group": "https:\/\/www.facebook.com\/groups\/407863520036417\/", "Google_Group_Link": "", "Slack_Group_link": "" }, "geometry": null },
{ "type": "Feature", "properties": { "Name": "Los Angeles", "City": "Los Angeles Yang Gang", "State": "California", "Yang_Gang_Primary_Contact": "Zak Stoltz", "Yang_Gang_Primary_Contact_Email": "socal.yang.gang@gmail.com", "Yang_Gang_Regional_Organizer_Email": "socal.yang.gang@gmail.com", "Yang_Gang_Facebook_Group": "https:\/\/www.facebook.com\/groups\/589042938233854\/", "Google_Group_Link": "", "Slack_Group_link": "" }, "geometry": null },
{ "type": "Feature", "properties": { "Name": "Pembroke Pines", "City": "Pembroke Pines", "State": "Florida", "Yang_Gang_Primary_Contact": "Daniel Patino", "Yang_Gang_Primary_Contact_Email": "PembrokePines.Yang.Gang@gmail.com", "Yang_Gang_Regional_Organizer_Email": "florida.yang.gang@gmail.com", "Yang_Gang_Facebook_Group": "https:\/\/www.facebook.com\/groups\/543001579556724\/", "Google_Group_Link": "", "Slack_Group_link": "" }, "geometry": null },
{ "type": "Feature", "properties": { "Name": "Hampton Roads", "City": "Hampton Roads", "State": "Virginia", "Yang_Gang_Primary_Contact": "Stephen Lamczyk", "Yang_Gang_Primary_Contact_Email": "hampton.roads.yang.gang@gmail.com", "Yang_Gang_Regional_Organizer_Email": "Virginia.yang.gang@gmail.com", "Yang_Gang_Facebook_Group": "https:\/\/www.facebook.com\/groups\/2684684634880985\/", "Google_Group_Link": "", "Slack_Group_link": "" }, "geometry": null },
{ "type": "Feature", "properties": { "Name": "Ohio Valley", "City": "Ohio Valley", "State": "Ohio", "Yang_Gang_Primary_Contact": "Aaron Kennedy", "Yang_Gang_Primary_Contact_Email": "ajkennedy1162@gmail.com", "Yang_Gang_Regional_Organizer_Email": "ohio.yang.gang@gmail.com", "Yang_Gang_Facebook_Group": "https:\/\/www.facebook.com\/groups\/OhioValleyYangGang\/", "Google_Group_Link": "", "Slack_Group_link": "" }, "geometry": null },
{ "type": "Feature", "properties": { "Name": "Rome", "City": "Rome", "State": "New York", "Yang_Gang_Primary_Contact": "Abe Medel", "Yang_Gang_Primary_Contact_Email": "romeyanggang@gmail.com", "Yang_Gang_Regional_Organizer_Email": "newyork.yang.gang@gmail.com", "Yang_Gang_Facebook_Group": "https:\/\/www.facebook.com\/groups\/842655182773373\/", "Google_Group_Link": "", "Slack_Group_link": "" }, "geometry": null },
{ "type": "Feature", "properties": { "Name": "New York City", "City": "New York City", "State": "New York", "Yang_Gang_Primary_Contact": "Ping Chen", "Yang_Gang_Primary_Contact_Email": "nyc@organizeforyang.org", "Yang_Gang_Regional_Organizer_Email": "newyork.yang.gang@gmail.com", "Yang_Gang_Facebook_Group": "https:\/\/www.facebook.com\/groups\/nycyanggang", "Google_Group_Link": "", "Slack_Group_link": "" }, "geometry": null },
{ "type": "Feature", "properties": { "Name": "Quad Cities", "City": "Quad Cities", "State": "Iowa", "Yang_Gang_Primary_Contact": "Paula Strait", "Yang_Gang_Primary_Contact_Email": "doctor.strait@gmail.com", "Yang_Gang_Regional_Organizer_Email": "Iowa.Yang.Gang@gmail.com", "Yang_Gang_Facebook_Group": "https:\/\/www.facebook.com\/groups\/MightyYangGang\/", "Google_Group_Link": "", "Slack_Group_link": "" }, "geometry": null },
{ "type": "Feature", "properties": { "Name": "Cedar Rapids", "City": "Cedar Rapids", "State": "Iowa", "Yang_Gang_Primary_Contact": "Derek Cooney", "Yang_Gang_Primary_Contact_Email": "cooney4001@gmail.com", "Yang_Gang_Regional_Organizer_Email": "Iowa.Yang.Gang@gmail.com", "Yang_Gang_Facebook_Group": "https:\/\/www.facebook.com\/groups\/596634860807650\/", "Google_Group_Link": "", "Slack_Group_link": "" }, "geometry": null },
{ "type": "Feature", "properties": { "Name": "Harrisburg", "City": "Harrisburg", "State": "Pennsylvania", "Yang_Gang_Primary_Contact": "Nick Karagiannis", "Yang_Gang_Primary_Contact_Email": "nkaragiannis12@gmail.com", "Yang_Gang_Regional_Organizer_Email": "", "Yang_Gang_Facebook_Group": "https:\/\/www.facebook.com\/groups\/1999189700203794\/", "Google_Group_Link": "", "Slack_Group_link": "" }, "geometry": null },
{ "type": "Feature", "properties": { "Name": "Marin County", "City": "Marin County", "State": "California", "Yang_Gang_Primary_Contact": "Kat Gundling", "Yang_Gang_Primary_Contact_Email": "marinforyang@gmail.com", "Yang_Gang_Regional_Organizer_Email": "socal.yang.gang@gmail.com", "Yang_Gang_Facebook_Group": "", "Google_Group_Link": "", "Slack_Group_link": "" }, "geometry": null },
{ "type": "Feature", "properties": { "Name": "Martinez", "City": "Martinez", "State": "California", "Yang_Gang_Primary_Contact": "Bill Hotter", "Yang_Gang_Primary_Contact_Email": "williamphotter@gmail.com", "Yang_Gang_Regional_Organizer_Email": "socal.yang.gang@gmail.com", "Yang_Gang_Facebook_Group": "https:\/\/www.facebook.com\/groups\/1927251157343634\/", "Google_Group_Link": "", "Slack_Group_link": "" }, "geometry": null },
{ "type": "Feature", "properties": { "Name": "Montpellier", "City": "Montpellier", "State": "France", "Yang_Gang_Primary_Contact": "Emily Dussenberg", "Yang_Gang_Primary_Contact_Email": "duese003@umn.edu", "Yang_Gang_Regional_Organizer_Email": "", "Yang_Gang_Facebook_Group": "https:\/\/www.facebook.com\/groups\/montpellieryanggang\/", "Google_Group_Link": "", "Slack_Group_link": "" }, "geometry": null },
{ "type": "Feature", "properties": { "Name": "Memphis", "City": "Memphis", "State": "Tennessee", "Yang_Gang_Primary_Contact": "Ashley Gerst", "Yang_Gang_Primary_Contact_Email": "Memphis.yang.gang@gmail.com", "Yang_Gang_Regional_Organizer_Email": "tennessee.yang.gang@gmail.com", "Yang_Gang_Facebook_Group": "https:\/\/www.facebook.com\/groups\/2269490176637211\/?ref=share", "Google_Group_Link": "", "Slack_Group_link": "" }, "geometry": null },
{ "type": "Feature", "properties": { "Name": "Rio Grande Valley", "City": "Rio Grande Valley", "State": "Texas", "Yang_Gang_Primary_Contact": "Frank Lozano", "Yang_Gang_Primary_Contact_Email": "isatope@gmail.com", "Yang_Gang_Regional_Organizer_Email": "", "Yang_Gang_Facebook_Group": "https:\/\/www.facebook.com\/groups\/rgvyanggang\/", "Google_Group_Link": "", "Slack_Group_link": "" }, "geometry": null },
{ "type": "Feature", "properties": { "Name": "Rockford", "City": "Rockford", "State": "Illinois", "Yang_Gang_Primary_Contact": "Kaide Holbert", "Yang_Gang_Primary_Contact_Email": "kaidethagod@gmail.com", "Yang_Gang_Regional_Organizer_Email": "illinois.yang.gang@gmail.com", "Yang_Gang_Facebook_Group": "https:\/\/www.facebook.com\/groups\/1954527111263066\/", "Google_Group_Link": "", "Slack_Group_link": "" }, "geometry": null },
{ "type": "Feature", "properties": { "Name": "Wilmington", "City": "Wilmington", "State": "North Carolina", "Yang_Gang_Primary_Contact": "Miles Iventosch", "Yang_Gang_Primary_Contact_Email": "", "Yang_Gang_Regional_Organizer_Email": "NC.Yang.Gang@gmail.com ", "Yang_Gang_Facebook_Group": "https:\/\/www.facebook.com\/groups\/yanggangwilmington\/", "Google_Group_Link": "", "Slack_Group_link": "" }, "geometry": null },
{ "type": "Feature", "properties": { "Name": "Minneapolis", "City": "Minneapolis", "State": "Minnesota", "Yang_Gang_Primary_Contact": "Jamie Cravens", "Yang_Gang_Primary_Contact_Email": "mspyanggang@gmail.com", "Yang_Gang_Regional_Organizer_Email": "minnesota.yang.gang@gmail.com", "Yang_Gang_Facebook_Group": "https:\/\/www.facebook.com\/groups\/495060547565534\/", "Google_Group_Link": "", "Slack_Group_link": "" }, "geometry": null },
{ "type": "Feature", "properties": { "Name": "Sioux City", "City": "Sioux City", "State": "Iowa", "Yang_Gang_Primary_Contact": "Dallas Bruneau", "Yang_Gang_Primary_Contact_Email": "", "Yang_Gang_Regional_Organizer_Email": "Iowa.Yang.Gang@gmail.com", "Yang_Gang_Facebook_Group": "https:\/\/www.facebook.com\/groups\/2317144018504136\/", "Google_Group_Link": "", "Slack_Group_link": "" }, "geometry": null },
{ "type": "Feature", "properties": { "Name": "Dallas", "City": "Dallas", "State": "Texas", "Yang_Gang_Primary_Contact": "Hexel Colorado", "Yang_Gang_Primary_Contact_Email": "", "Yang_Gang_Regional_Organizer_Email": "", "Yang_Gang_Facebook_Group": "https:\/\/www.facebook.com\/groups\/151772435722906", "Google_Group_Link": "", "Slack_Group_link": "" }, "geometry": null },
{ "type": "Feature", "properties": { "Name": "North Buckhead", "City": "North Buckhead", "State": "Georgia", "Yang_Gang_Primary_Contact": "Tim Ofril", "Yang_Gang_Primary_Contact_Email": "yang2020ATL@gmail.com", "Yang_Gang_Regional_Organizer_Email": "georgia.yang.gang@gmail.com", "Yang_Gang_Facebook_Group": "", "Google_Group_Link": "", "Slack_Group_link": "" }, "geometry": null },
{ "type": "Feature", "properties": { "Name": "Dayton", "City": "Dayton", "State": "Ohio", "Yang_Gang_Primary_Contact": "Walter Rzecznik", "Yang_Gang_Primary_Contact_Email": "wrzeczni@kent.edu", "Yang_Gang_Regional_Organizer_Email": "ohio.yang.gang@gmail.com", "Yang_Gang_Facebook_Group": "https:\/\/www.facebook.com\/groups\/442471446489851\/", "Google_Group_Link": "", "Slack_Group_link": "" }, "geometry": null },
{ "type": "Feature", "properties": { "Name": "Bloomington", "City": "Bloomington", "State": "Minnesota", "Yang_Gang_Primary_Contact": "Max Collins", "Yang_Gang_Primary_Contact_Email": "collinsmax2@gmail.com", "Yang_Gang_Regional_Organizer_Email": "minnesota.yang.gang@gmail.com", "Yang_Gang_Facebook_Group": "https:\/\/www.facebook.com\/groups\/254718232119357\/", "Google_Group_Link": "", "Slack_Group_link": "" }, "geometry": null },
{ "type": "Feature", "properties": { "Name": "Midland-Odessa", "City": "Midland-Odessa", "State": "Texas", "Yang_Gang_Primary_Contact": "Jefferson Davis", "Yang_Gang_Primary_Contact_Email": "jeffersonscottdavis@gmail.com", "Yang_Gang_Regional_Organizer_Email": "", "Yang_Gang_Facebook_Group": "https:\/\/www.facebook.com\/groups\/odessatxyanggang\/", "Google_Group_Link": "", "Slack_Group_link": "" }, "geometry": null },
{ "type": "Feature", "properties": { "Name": "Hawaii", "City": "Hawaii", "State": "Hawaii", "Yang_Gang_Primary_Contact": "Jalem Correia", "Yang_Gang_Primary_Contact_Email": "hawaiiyanggang@gmail.com", "Yang_Gang_Regional_Organizer_Email": "HawaiiRO.yang.gang@gmail.com", "Yang_Gang_Facebook_Group": "https:\/\/www.facebook.com\/groups\/HawaiiYangGang\/", "Google_Group_Link": "", "Slack_Group_link": "" }, "geometry": null },
{ "type": "Feature", "properties": { "Name": "New Orleans", "City": "New Orleans", "State": "Louisiana", "Yang_Gang_Primary_Contact": "Chaseray Griffin", "Yang_Gang_Primary_Contact_Email": "Nola.yang.gang@gmail.com", "Yang_Gang_Regional_Organizer_Email": "louisiana.yang.gang@gmail.com", "Yang_Gang_Facebook_Group": "", "Google_Group_Link": "https:\/\/groups.google.com\/forum\/#!forum\/new-orleans-yang-gang", "Slack_Group_link": "" }, "geometry": null },
{ "type": "Feature", "properties": { "Name": "N. Portland", "City": "N. Portland", "State": "Oregon", "Yang_Gang_Primary_Contact": "Jess Fortier", "Yang_Gang_Primary_Contact_Email": "pdxyanggang@gmail.com", "Yang_Gang_Regional_Organizer_Email": "oregon.yang.gang@gmail.com ", "Yang_Gang_Facebook_Group": "https:\/\/www.facebook.com\/groups\/PortlandORYangGang", "Google_Group_Link": "", "Slack_Group_link": "" }, "geometry": null },
{ "type": "Feature", "properties": { "Name": "Southwest Florida", "City": "Southwest Florida", "State": "Florida", "Yang_Gang_Primary_Contact": "Matt Jones", "Yang_Gang_Primary_Contact_Email": "SwFL.Yang.Gang@gmail.com", "Yang_Gang_Regional_Organizer_Email": "florida.yang.gang@gmail.com", "Yang_Gang_Facebook_Group": "https:\/\/www.facebook.com\/groups\/690049831390270\/", "Google_Group_Link": "", "Slack_Group_link": "" }, "geometry": null },
{ "type": "Feature", "properties": { "Name": "Nashville", "City": "Nashville", "State": "Tennessee", "Yang_Gang_Primary_Contact": "Colton Anderson", "Yang_Gang_Primary_Contact_Email": "", "Yang_Gang_Regional_Organizer_Email": "tennessee.yang.gang@gmail.com", "Yang_Gang_Facebook_Group": "https:\/\/www.facebook.com\/groups\/634773986981018\/", "Google_Group_Link": "", "Slack_Group_link": "" }, "geometry": null },
{ "type": "Feature", "properties": { "Name": "Columbus", "City": "Columbus", "State": "Ohio", "Yang_Gang_Primary_Contact": "Will Newsome", "Yang_Gang_Primary_Contact_Email": "williamlegend74@gmail.com", "Yang_Gang_Regional_Organizer_Email": "ohio.yang.gang@gmail.com", "Yang_Gang_Facebook_Group": "https:\/\/www.facebook.com\/groups\/2125511601093816\/", "Google_Group_Link": "", "Slack_Group_link": "" }, "geometry": null },
{ "type": "Feature", "properties": { "Name": "Hamptons", "City": "Hamptons", "State": "New York", "Yang_Gang_Primary_Contact": "Noah Carter", "Yang_Gang_Primary_Contact_Email": "hamptonsyanggang@gmail.com", "Yang_Gang_Regional_Organizer_Email": "newyork.yang.gang@gmail.com", "Yang_Gang_Facebook_Group": "https:\/\/www.facebook.com\/groups\/358056668367260", "Google_Group_Link": "", "Slack_Group_link": "" }, "geometry": null },
{ "type": "Feature", "properties": { "Name": "Greater Hartford", "City": "Hartford", "State": "Connecticut", "Yang_Gang_Primary_Contact": "Sarah Hambroke", "Yang_Gang_Primary_Contact_Email": "hartfordyanggang@gmail.com", "Yang_Gang_Regional_Organizer_Email": "Connecticut.Yang.Gang@gmail.com", "Yang_Gang_Facebook_Group": "https:\/\/www.facebook.com\/groups\/greaterhartfordyang2020\/", "Google_Group_Link": "", "Slack_Group_link": "" }, "geometry": null },
{ "type": "Feature", "properties": { "Name": "St. Augustine", "City": "St. Augustine", "State": "Florida", "Yang_Gang_Primary_Contact": "Michele Lesure and Rondi Frisch", "Yang_Gang_Primary_Contact_Email": "staugustine.yang.gang@gmail.com", "Yang_Gang_Regional_Organizer_Email": "florida.yang.gang@gmail.com", "Yang_Gang_Facebook_Group": "https:\/\/www.facebook.com\/groups\/StAugustineYangGang\/", "Google_Group_Link": "", "Slack_Group_link": "" }, "geometry": null },
{ "type": "Feature", "properties": { "Name": "Colchester", "City": "Colchester", "State": "United Kingdom", "Yang_Gang_Primary_Contact": "David R-D", "Yang_Gang_Primary_Contact_Email": "blinx2100@gmail.com", "Yang_Gang_Regional_Organizer_Email": "", "Yang_Gang_Facebook_Group": "https:\/\/www.facebook.com\/groups\/375710103269538\/", "Google_Group_Link": "", "Slack_Group_link": "" }, "geometry": null },
{ "type": "Feature", "properties": { "Name": "Maine", "City": "Maine", "State": "Maine", "Yang_Gang_Primary_Contact": "Justin Ko", "Yang_Gang_Primary_Contact_Email": "maine@organizeforyang.org", "Yang_Gang_Regional_Organizer_Email": "Maine.Yang.Gang@gmail.com", "Yang_Gang_Facebook_Group": "https:\/\/www.facebook.com\/groups\/MaineYangGang\/", "Google_Group_Link": "", "Slack_Group_link": "" }, "geometry": null },
{ "type": "Feature", "properties": { "Name": "Medellin", "City": "Medellin", "State": "Colombia", "Yang_Gang_Primary_Contact": "Spencer Tichenor", "Yang_Gang_Primary_Contact_Email": "spencertichenor@gmail.com", "Yang_Gang_Regional_Organizer_Email": "", "Yang_Gang_Facebook_Group": "https:\/\/www.facebook.com\/groups\/medellinyanggang\/", "Google_Group_Link": "", "Slack_Group_link": "" }, "geometry": null },
{ "type": "Feature", "properties": { "Name": "Myrtle Beach", "City": "Myrtle Beach", "State": "South Carolina", "Yang_Gang_Primary_Contact": "John LaValley", "Yang_Gang_Primary_Contact_Email": "jlavalley09@gmail.com", "Yang_Gang_Regional_Organizer_Email": "southcarolina.yang.gang@gmail.com", "Yang_Gang_Facebook_Group": "", "Google_Group_Link": "", "Slack_Group_link": "" }, "geometry": null },
{ "type": "Feature", "properties": { "Name": "North Fork Valley", "City": "North Fork Valley", "State": "Colorado", "Yang_Gang_Primary_Contact": "Monica Foguth", "Yang_Gang_Primary_Contact_Email": "", "Yang_Gang_Regional_Organizer_Email": "colorado.yang.gang@gmail.com", "Yang_Gang_Facebook_Group": "https:\/\/www.facebook.com\/groups\/2275027209492527\/about\/", "Google_Group_Link": "", "Slack_Group_link": "" }, "geometry": null },
{ "type": "Feature", "properties": { "Name": "Pittsburgh", "City": "Pittsburgh", "State": "Pennsylvania", "Yang_Gang_Primary_Contact": "Katie Uihlein", "Yang_Gang_Primary_Contact_Email": "pittsburghyang2020@gmail.com", "Yang_Gang_Regional_Organizer_Email": "", "Yang_Gang_Facebook_Group": "https:\/\/www.facebook.com\/groups\/pittsburghyang2020\/", "Google_Group_Link": "", "Slack_Group_link": "" }, "geometry": null },
{ "type": "Feature", "properties": { "Name": "Eugene", "City": "Eugene", "State": "Oregon", "Yang_Gang_Primary_Contact": "Brian Kitching", "Yang_Gang_Primary_Contact_Email": "eugene.yang.gang@gmail.com", "Yang_Gang_Regional_Organizer_Email": "oregon.yang.gang@gmail.com ", "Yang_Gang_Facebook_Group": "", "Google_Group_Link": "", "Slack_Group_link": "" }, "geometry": null },
{ "type": "Feature", "properties": { "Name": "Northern Colorado", "City": "Northern Colorado", "State": "Colorado", "Yang_Gang_Primary_Contact": "Christopher Spotts", "Yang_Gang_Primary_Contact_Email": "NoCo.Yang.Gang@gmail.com", "Yang_Gang_Regional_Organizer_Email": "colorado.yang.gang@gmail.com", "Yang_Gang_Facebook_Group": "https:\/\/www.facebook.com\/groups\/NoCoYangGang\/", "Google_Group_Link": "", "Slack_Group_link": "" }, "geometry": null },
{ "type": "Feature", "properties": { "Name": "Northern Iowa", "City": "Northern Iowa", "State": "Iowa", "Yang_Gang_Primary_Contact": "Tyler Hemphill", "Yang_Gang_Primary_Contact_Email": "hemphilt@uni.edu", "Yang_Gang_Regional_Organizer_Email": "Iowa.Yang.Gang@gmail.com", "Yang_Gang_Facebook_Group": "https:\/\/www.facebook.com\/groups\/609238002867365\/", "Google_Group_Link": "", "Slack_Group_link": "" }, "geometry": null },
{ "type": "Feature", "properties": { "Name": "Northern New England \/ Montpelier", "City": "Northern New England \/ Montpelier", "State": "Vermont", "Yang_Gang_Primary_Contact": "Michael Lazorchak", "Yang_Gang_Primary_Contact_Email": "lazorchakm@gmail.com", "Yang_Gang_Regional_Organizer_Email": "Vermont.Yang.Gang@gmail.com", "Yang_Gang_Facebook_Group": "https:\/\/www.facebook.com\/groups\/newenglandyanggang\/", "Google_Group_Link": "", "Slack_Group_link": "" }, "geometry": null },
{ "type": "Feature", "properties": { "Name": "Northern Vermont \/ St. Albans City", "City": "Northern Vermont \/ St. Albans City", "State": "Vermont", "Yang_Gang_Primary_Contact": "Rick Newbury", "Yang_Gang_Primary_Contact_Email": "ricknewbury@outlook.com", "Yang_Gang_Regional_Organizer_Email": "Vermont.Yang.Gang@gmail.com", "Yang_Gang_Facebook_Group": "https:\/\/www.facebook.com\/groups\/322772685056931\/", "Google_Group_Link": "", "Slack_Group_link": "" }, "geometry": null },
{ "type": "Feature", "properties": { "Name": "Northern Virginia", "City": "Northern Virginia", "State": "Virginia", "Yang_Gang_Primary_Contact": "Chris Dobrogosz", "Yang_Gang_Primary_Contact_Email": "northernvirginia.yang.gang@gmail.com", "Yang_Gang_Regional_Organizer_Email": "Virginia.yang.gang@gmail.com", "Yang_Gang_Facebook_Group": "", "Google_Group_Link": "", "Slack_Group_link": "" }, "geometry": null },
{ "type": "Feature", "properties": { "Name": "Louisville", "City": "Louisville", "State": "Kentucky", "Yang_Gang_Primary_Contact": "Paul Coffey", "Yang_Gang_Primary_Contact_Email": "lou.ky.yang.gang@gmail.com", "Yang_Gang_Regional_Organizer_Email": "kentucky.yang.gang@gmail.com", "Yang_Gang_Facebook_Group": "https:\/\/www.facebook.com\/groups\/362122947762076\/", "Google_Group_Link": "", "Slack_Group_link": "" }, "geometry": null },
{ "type": "Feature", "properties": { "Name": "Huntsville", "City": "Huntsville", "State": "Alabama", "Yang_Gang_Primary_Contact": "Jacob Anders", "Yang_Gang_Primary_Contact_Email": "huntsville.yang.gang@gmail.com", "Yang_Gang_Regional_Organizer_Email": "alabama.yang.gang@gmail.com", "Yang_Gang_Facebook_Group": "https:\/\/www.facebook.com\/groups\/2248308705190074\/", "Google_Group_Link": "", "Slack_Group_link": "" }, "geometry": null },
{ "type": "Feature", "properties": { "Name": "Oakdale", "City": "Oakdale", "State": "California", "Yang_Gang_Primary_Contact": "Amanda Bryant", "Yang_Gang_Primary_Contact_Email": "Amandajbryant@yahoo.com", "Yang_Gang_Regional_Organizer_Email": "socal.yang.gang@gmail.com", "Yang_Gang_Facebook_Group": "", "Google_Group_Link": "", "Slack_Group_link": "" }, "geometry": null },
{ "type": "Feature", "properties": { "Name": "Oakland", "City": "Oakland", "State": "California", "Yang_Gang_Primary_Contact": "Anya Petrova", "Yang_Gang_Primary_Contact_Email": "east.bay.yanggang@gmail.com", "Yang_Gang_Regional_Organizer_Email": "socal.yang.gang@gmail.com", "Yang_Gang_Facebook_Group": "https:\/\/www.facebook.com\/groups\/310938572794537\/", "Google_Group_Link": "", "Slack_Group_link": "" }, "geometry": null },
{ "type": "Feature", "properties": { "Name": "West Central Illinois", "City": "West Central Illinois", "State": "Illinois", "Yang_Gang_Primary_Contact": "Karen Weirather", "Yang_Gang_Primary_Contact_Email": "karensandersflutist@gmail.com", "Yang_Gang_Regional_Organizer_Email": "illinois.yang.gang@gmail.com", "Yang_Gang_Facebook_Group": "https:\/\/www.facebook.com\/groups\/358275888354884\/", "Google_Group_Link": "", "Slack_Group_link": "" }, "geometry": null },
{ "type": "Feature", "properties": { "Name": "Bloomington", "City": "Bloomington", "State": "Indiana", "Yang_Gang_Primary_Contact": "Nick Linfesty", "Yang_Gang_Primary_Contact_Email": "", "Yang_Gang_Regional_Organizer_Email": "indy.yang.gang@gmail.com", "Yang_Gang_Facebook_Group": "https:\/\/www.facebook.com\/groups\/BloomingtonYangGang\/", "Google_Group_Link": "", "Slack_Group_link": "" }, "geometry": null },
{ "type": "Feature", "properties": { "Name": "Orange County", "City": "Orange County", "State": "California", "Yang_Gang_Primary_Contact": "Jenna Lloyd", "Yang_Gang_Primary_Contact_Email": "socal.yang.gang@gmail.com", "Yang_Gang_Regional_Organizer_Email": "socal.yang.gang@gmail.com", "Yang_Gang_Facebook_Group": "https:\/\/www.facebook.com\/groups\/342523039702764\/", "Google_Group_Link": "", "Slack_Group_link": "" }, "geometry": null },
{ "type": "Feature", "properties": { "Name": "Orlando", "City": "Orlando", "State": "Florida", "Yang_Gang_Primary_Contact": "Brandon Vanetta", "Yang_Gang_Primary_Contact_Email": "centralflorida.yang.gang@gmail.com", "Yang_Gang_Regional_Organizer_Email": "florida.yang.gang@gmail.com", "Yang_Gang_Facebook_Group": "https:\/\/www.facebook.com\/groups\/centralfloridayanggang\/", "Google_Group_Link": "", "Slack_Group_link": "" }, "geometry": null },
{ "type": "Feature", "properties": { "Name": "Mid-Ohio Valley", "City": "Mid-Ohio valley", "State": "West Virginia", "Yang_Gang_Primary_Contact": "Mel Mendoza", "Yang_Gang_Primary_Contact_Email": "parkersburg.yang.gang@gmail.com", "Yang_Gang_Regional_Organizer_Email": "WestVirginia.yang.gang@gmail.com", "Yang_Gang_Facebook_Group": "https:\/\/www.facebook.com\/groups\/303897587174096\/", "Google_Group_Link": "", "Slack_Group_link": "" }, "geometry": null },
{ "type": "Feature", "properties": { "Name": "Binghamton", "City": "Binghamton", "State": "New York", "Yang_Gang_Primary_Contact": "Jack Conner", "Yang_Gang_Primary_Contact_Email": "binghamton@organizeforyang.org", "Yang_Gang_Regional_Organizer_Email": "newyork.yang.gang@gmail.com", "Yang_Gang_Facebook_Group": "https:\/\/www.facebook.com\/groups\/392996381528835\/", "Google_Group_Link": "", "Slack_Group_link": "" }, "geometry": null },
{ "type": "Feature", "properties": { "Name": "Northeast Minneapolis", "City": "Northeast Minneapolis", "State": "Minnesota", "Yang_Gang_Primary_Contact": "Jessica Wells", "Yang_Gang_Primary_Contact_Email": "chessie138@gmail.com", "Yang_Gang_Regional_Organizer_Email": "minnesota.yang.gang@gmail.com", "Yang_Gang_Facebook_Group": "https:\/\/www.facebook.com\/groups\/295519591379167\/", "Google_Group_Link": "", "Slack_Group_link": "" }, "geometry": null },
{ "type": "Feature", "properties": { "Name": "Southwest Oklahoma", "City": "Southwest Oklahoma", "State": "Oklahoma", "Yang_Gang_Primary_Contact": "Geary Poling", "Yang_Gang_Primary_Contact_Email": "", "Yang_Gang_Regional_Organizer_Email": "oklahoma.yang.gang@gmail.com", "Yang_Gang_Facebook_Group": "https:\/\/www.facebook.com\/groups\/1140433062783121\/", "Google_Group_Link": "", "Slack_Group_link": "" }, "geometry": null },
{ "type": "Feature", "properties": { "Name": "League City", "City": "League City", "State": "Texas", "Yang_Gang_Primary_Contact": "Sean Dalton", "Yang_Gang_Primary_Contact_Email": "llarpiwhal@gmail.com", "Yang_Gang_Regional_Organizer_Email": "", "Yang_Gang_Facebook_Group": "https:\/\/www.facebook.com\/groups\/2185427865102832\/", "Google_Group_Link": "", "Slack_Group_link": "" }, "geometry": null },
{ "type": "Feature", "properties": { "Name": "Western Massachusetts", "City": "Western Massachusetts", "State": "Massachusetts", "Yang_Gang_Primary_Contact": "Derek Eshelman", "Yang_Gang_Primary_Contact_Email": "gb.yang.gang@gmail.com", "Yang_Gang_Regional_Organizer_Email": "", "Yang_Gang_Facebook_Group": "https:\/\/www.facebook.com\/groups\/WestMassYangGang\/", "Google_Group_Link": "", "Slack_Group_link": "" }, "geometry": null },
{ "type": "Feature", "properties": { "Name": "Phoenix", "City": "Phoenix", "State": "Arizona", "Yang_Gang_Primary_Contact": "Andrew Glitch", "Yang_Gang_Primary_Contact_Email": "ag1303@gmail.com", "Yang_Gang_Regional_Organizer_Email": "arizona.yang.gang@gmail.com", "Yang_Gang_Facebook_Group": "https:\/\/www.facebook.com\/groups\/384464952332718", "Google_Group_Link": "", "Slack_Group_link": "" }, "geometry": null },
{ "type": "Feature", "properties": { "Name": "Phoenix", "City": "Phoenix", "State": "Arizona", "Yang_Gang_Primary_Contact": "Ron Russell", "Yang_Gang_Primary_Contact_Email": "Ron@utopia42.com", "Yang_Gang_Regional_Organizer_Email": "arizona.yang.gang@gmail.com", "Yang_Gang_Facebook_Group": "https:\/\/www.facebook.com\/groups\/PhxAzYangGang\/", "Google_Group_Link": "", "Slack_Group_link": "" }, "geometry": null },
{ "type": "Feature", "properties": { "Name": "State College", "City": "State College", "State": "Pennsylvania", "Yang_Gang_Primary_Contact": "Gary Keene", "Yang_Gang_Primary_Contact_Email": "ghobo31@gmail.com", "Yang_Gang_Regional_Organizer_Email": "", "Yang_Gang_Facebook_Group": "https:\/\/www.facebook.com\/groups\/2287484751533325?ref=content_filter", "Google_Group_Link": "", "Slack_Group_link": "" }, "geometry": null },
{ "type": "Feature", "properties": { "Name": "Keokuk", "City": "Keokuk", "State": "Iowa", "Yang_Gang_Primary_Contact": "Nicole Wright", "Yang_Gang_Primary_Contact_Email": "timberwolfs16@hotmail.com", "Yang_Gang_Regional_Organizer_Email": "Iowa.Yang.Gang@gmail.com", "Yang_Gang_Facebook_Group": "https:\/\/www.facebook.com\/groups\/southeastiowayanggang\/", "Google_Group_Link": "", "Slack_Group_link": "" }, "geometry": null },
{ "type": "Feature", "properties": { "Name": "Portland", "City": "Portland", "State": "Maine", "Yang_Gang_Primary_Contact": "Mike Watts", "Yang_Gang_Primary_Contact_Email": "", "Yang_Gang_Regional_Organizer_Email": "Maine.Yang.Gang@gmail.com", "Yang_Gang_Facebook_Group": "", "Google_Group_Link": "", "Slack_Group_link": "" }, "geometry": null },
{ "type": "Feature", "properties": { "Name": "Jackson Heights", "City": "Jackson Heights", "State": "New York", "Yang_Gang_Primary_Contact": "Gareth Lee", "Yang_Gang_Primary_Contact_Email": "nyc@organizeforyang.org", "Yang_Gang_Regional_Organizer_Email": "newyork.yang.gang@gmail.com", "Yang_Gang_Facebook_Group": "https:\/\/www.facebook.com\/groups\/473695493169020\/", "Google_Group_Link": "", "Slack_Group_link": "" }, "geometry": null },
{ "type": "Feature", "properties": { "Name": "Lyndhurst", "City": "Lyndhurst", "State": "New Jersey", "Yang_Gang_Primary_Contact": "Melissa Planty", "Yang_Gang_Primary_Contact_Email": "melissa.planty@gmail.com", "Yang_Gang_Regional_Organizer_Email": "", "Yang_Gang_Facebook_Group": "https:\/\/www.facebook.com\/groups\/395818334511376\/", "Google_Group_Link": "", "Slack_Group_link": "" }, "geometry": null },
{ "type": "Feature", "properties": { "Name": "Greensboro", "City": "Greensboro", "State": "North Carolina", "Yang_Gang_Primary_Contact": "Chris Groch", "Yang_Gang_Primary_Contact_Email": "", "Yang_Gang_Regional_Organizer_Email": "NC.Yang.Gang@gmail.com ", "Yang_Gang_Facebook_Group": "http:\/\/www.facebook.com\/groups\/greensboroyang2020", "Google_Group_Link": "", "Slack_Group_link": "" }, "geometry": null },
{ "type": "Feature", "properties": { "Name": "North Carolina", "City": "North Carolina", "State": "North Carolina", "Yang_Gang_Primary_Contact": "J. Phillips", "Yang_Gang_Primary_Contact_Email": "", "Yang_Gang_Regional_Organizer_Email": "NC.Yang.Gang@gmail.com ", "Yang_Gang_Facebook_Group": "", "Google_Group_Link": "", "Slack_Group_link": "" }, "geometry": null },
{ "type": "Feature", "properties": { "Name": "Rochester", "City": "Rochester", "State": "New York", "Yang_Gang_Primary_Contact": "Daniel Whelan", "Yang_Gang_Primary_Contact_Email": "rochester.yang.gang@gmail", "Yang_Gang_Regional_Organizer_Email": "newyork.yang.gang@gmail.com", "Yang_Gang_Facebook_Group": "https:\/\/www.facebook.com\/groups\/rochesteryanggang", "Google_Group_Link": "", "Slack_Group_link": "" }, "geometry": null },
{ "type": "Feature", "properties": { "Name": "Richardson", "City": "Richardson", "State": "Texas", "Yang_Gang_Primary_Contact": "Gnamien Augustin", "Yang_Gang_Primary_Contact_Email": "yvesaugustin@gmail.com", "Yang_Gang_Regional_Organizer_Email": "", "Yang_Gang_Facebook_Group": "", "Google_Group_Link": "", "Slack_Group_link": "" }, "geometry": null },
{ "type": "Feature", "properties": { "Name": "Richmond", "City": "Richmond", "State": "Virginia", "Yang_Gang_Primary_Contact": "Kenny Kane", "Yang_Gang_Primary_Contact_Email": "richmond.yang.gang@gmail.com", "Yang_Gang_Regional_Organizer_Email": "Virginia.yang.gang@gmail.com", "Yang_Gang_Facebook_Group": "https:\/\/www.facebook.com\/groups\/295448087824038\/", "Google_Group_Link": "", "Slack_Group_link": "" }, "geometry": null },
{ "type": "Feature", "properties": { "Name": "Lubbock", "City": "Lubbock", "State": "Texas", "Yang_Gang_Primary_Contact": "Monroe Stephenson", "Yang_Gang_Primary_Contact_Email": "Emaeornom@gmail.com", "Yang_Gang_Regional_Organizer_Email": "", "Yang_Gang_Facebook_Group": "https:\/\/www.facebook.com\/groups\/1081684792032938\/", "Google_Group_Link": "", "Slack_Group_link": "" }, "geometry": null },
{ "type": "Feature", "properties": { "Name": "Queens", "City": "Queens", "State": "New York", "Yang_Gang_Primary_Contact": "Daniel DeCastro ", "Yang_Gang_Primary_Contact_Email": "nyc@organizeforyang.org", "Yang_Gang_Regional_Organizer_Email": "newyork.yang.gang@gmail.com", "Yang_Gang_Facebook_Group": "https:\/\/www.facebook.com\/groups\/1151730124995307\/", "Google_Group_Link": "", "Slack_Group_link": "" }, "geometry": null },
{ "type": "Feature", "properties": { "Name": "Wichita", "City": "Wichita", "State": "Kansas", "Yang_Gang_Primary_Contact": "Antionio Bales", "Yang_Gang_Primary_Contact_Email": "", "Yang_Gang_Regional_Organizer_Email": "kansas.yang.gang@gmail.com", "Yang_Gang_Facebook_Group": "https:\/\/www.facebook.com\/groups\/556180964861128\/", "Google_Group_Link": "", "Slack_Group_link": "" }, "geometry": null },
{ "type": "Feature", "properties": { "Name": "Rehoboth Beach", "City": "Rehoboth Beach", "State": "Delaware", "Yang_Gang_Primary_Contact": "Charlie Garlow", "Yang_Gang_Primary_Contact_Email": "charliegarlow350@gmail.com", "Yang_Gang_Regional_Organizer_Email": "delaware.yang.gang@gmail.com", "Yang_Gang_Facebook_Group": "https:\/\/www.facebook.com\/groups\/1411378222336012\/", "Google_Group_Link": "", "Slack_Group_link": "" }, "geometry": null },
{ "type": "Feature", "properties": { "Name": "Princeton", "City": "Princeton", "State": "New Jersey", "Yang_Gang_Primary_Contact": "Oliver Yao", "Yang_Gang_Primary_Contact_Email": "oliver.y1203@gmail.com", "Yang_Gang_Regional_Organizer_Email": "", "Yang_Gang_Facebook_Group": "https:\/\/www.facebook.com\/groups\/560570784428303\/", "Google_Group_Link": "", "Slack_Group_link": "" }, "geometry": null },
{ "type": "Feature", "properties": { "Name": "Sacramento", "City": "Sacramento", "State": "California", "Yang_Gang_Primary_Contact": "Johnny Greavu", "Yang_Gang_Primary_Contact_Email": "yang2020sac@gmail.com", "Yang_Gang_Regional_Organizer_Email": "socal.yang.gang@gmail.com", "Yang_Gang_Facebook_Group": "https:\/\/www.facebook.com\/groups\/425268078281886\/", "Google_Group_Link": "", "Slack_Group_link": "" }, "geometry": null },
{ "type": "Feature", "properties": { "Name": "Salt Lake City", "City": "Salt Lake City", "State": "Utah", "Yang_Gang_Primary_Contact": "Logan Jensen", "Yang_Gang_Primary_Contact_Email": "", "Yang_Gang_Regional_Organizer_Email": "ut.yang.gang@gmail.com", "Yang_Gang_Facebook_Group": "https:\/\/www.facebook.com\/groups\/SaltLakeYangGang", "Google_Group_Link": "", "Slack_Group_link": "" }, "geometry": null },
{ "type": "Feature", "properties": { "Name": "Bryan-College Station", "City": "Bryan-College Station", "State": "Texas", "Yang_Gang_Primary_Contact": "Matthew King", "Yang_Gang_Primary_Contact_Email": "matthew_king@aggienetwork.com", "Yang_Gang_Regional_Organizer_Email": "", "Yang_Gang_Facebook_Group": "https:\/\/www.facebook.com\/groups\/316426595737694\/", "Google_Group_Link": "", "Slack_Group_link": "" }, "geometry": null },
{ "type": "Feature", "properties": { "Name": "San Diego", "City": "San Diego", "State": "California", "Yang_Gang_Primary_Contact": "Chris Platt", "Yang_Gang_Primary_Contact_Email": "socal.yang.gang@gmail.com", "Yang_Gang_Regional_Organizer_Email": "socal.yang.gang@gmail.com", "Yang_Gang_Facebook_Group": "https:\/\/www.facebook.com\/groups\/306957266671223\/", "Google_Group_Link": "", "Slack_Group_link": "" }, "geometry": null },
{ "type": "Feature", "properties": { "Name": "San Fernando Valley", "City": "San Fernando Valley", "State": "California", "Yang_Gang_Primary_Contact": "Juliet T", "Yang_Gang_Primary_Contact_Email": "socal.yang.gang@gmail.com", "Yang_Gang_Regional_Organizer_Email": "socal.yang.gang@gmail.com", "Yang_Gang_Facebook_Group": "https:\/\/www.facebook.com\/groups\/SFVYangGang\/", "Google_Group_Link": "", "Slack_Group_link": "" }, "geometry": null },
{ "type": "Feature", "properties": { "Name": "San Francisco", "City": "San Francisco", "State": "California", "Yang_Gang_Primary_Contact": "Carson Lam, Tristan Vanech", "Yang_Gang_Primary_Contact_Email": "sf@organizeforyang.org", "Yang_Gang_Regional_Organizer_Email": "socal.yang.gang@gmail.com", "Yang_Gang_Facebook_Group": "https:\/\/www.facebook.com\/groups\/Yang2020SF\/", "Google_Group_Link": "", "Slack_Group_link": "" }, "geometry": null },
{ "type": "Feature", "properties": { "Name": "San Gabriel Valley", "City": "San Gabriel Valley", "State": "California", "Yang_Gang_Primary_Contact": "Justin Jang", "Yang_Gang_Primary_Contact_Email": "socal.yang.gang@gmail.com", "Yang_Gang_Regional_Organizer_Email": "socal.yang.gang@gmail.com", "Yang_Gang_Facebook_Group": "https:\/\/www.facebook.com\/groups\/sangabrielvalleyYangGang\/", "Google_Group_Link": "", "Slack_Group_link": "" }, "geometry": null },
{ "type": "Feature", "properties": { "Name": "San Luis Obispo", "City": "San Luis Obispo", "State": "California", "Yang_Gang_Primary_Contact": "Fernando Chavez", "Yang_Gang_Primary_Contact_Email": "fchavez0025@gmail.com", "Yang_Gang_Regional_Organizer_Email": "socal.yang.gang@gmail.com", "Yang_Gang_Facebook_Group": "https:\/\/www.facebook.com\/groups\/262817247943007\/", "Google_Group_Link": "", "Slack_Group_link": "" }, "geometry": null },
{ "type": "Feature", "properties": { "Name": "Santa Barbara ", "City": "Santa Barbara", "State": "California", "Yang_Gang_Primary_Contact": "Cody O'Connell", "Yang_Gang_Primary_Contact_Email": "socal.yang.gang@gmail.com", "Yang_Gang_Regional_Organizer_Email": "socal.yang.gang@gmail.com", "Yang_Gang_Facebook_Group": "https:\/\/www.facebook.com\/groups\/1228286680656935\/", "Google_Group_Link": "", "Slack_Group_link": "" }, "geometry": null },
{ "type": "Feature", "properties": { "Name": "Santa Cruz", "City": "Santa Cruz", "State": "California", "Yang_Gang_Primary_Contact": "Thomas Schmitz", "Yang_Gang_Primary_Contact_Email": "santacruz@organizeforyang.org", "Yang_Gang_Regional_Organizer_Email": "socal.yang.gang@gmail.com", "Yang_Gang_Facebook_Group": "https:\/\/www.facebook.com\/groups\/SantaCruzCAYangGang\/", "Google_Group_Link": "", "Slack_Group_link": "" }, "geometry": null },
{ "type": "Feature", "properties": { "Name": "Santa Fe", "City": "Santa Fe", "State": "New Mexico", "Yang_Gang_Primary_Contact": "Duncan Sill", "Yang_Gang_Primary_Contact_Email": "Santafeduncan@icloud.com", "Yang_Gang_Regional_Organizer_Email": "newmexico.yang.gang@gmail.com", "Yang_Gang_Facebook_Group": "https:\/\/www.facebook.com\/groups\/SantaFeYangGang\/", "Google_Group_Link": "", "Slack_Group_link": "" }, "geometry": null },
{ "type": "Feature", "properties": { "Name": "Santa Monica ", "City": "Santa Monica", "State": "California", "Yang_Gang_Primary_Contact": "Maximilian Federman", "Yang_Gang_Primary_Contact_Email": "socal.yang.gang@gmail.com", "Yang_Gang_Regional_Organizer_Email": "socal.yang.gang@gmail.com", "Yang_Gang_Facebook_Group": "https:\/\/www.facebook.com\/groups\/330529994282917\/", "Google_Group_Link": "", "Slack_Group_link": "" }, "geometry": null },
{ "type": "Feature", "properties": { "Name": "Scranton", "City": "Scranton", "State": "Pennsylvania", "Yang_Gang_Primary_Contact": "Della Valle & Weinberg ", "Yang_Gang_Primary_Contact_Email": "cdv617@gmail.com", "Yang_Gang_Regional_Organizer_Email": "", "Yang_Gang_Facebook_Group": "https:\/\/www.facebook.com\/groups\/458519284932240\/", "Google_Group_Link": "", "Slack_Group_link": "" }, "geometry": null },
{ "type": "Feature", "properties": { "Name": "Seattle", "City": "Seattle", "State": "Washington", "Yang_Gang_Primary_Contact": "Sy Donovan (Andrew Kim)", "Yang_Gang_Primary_Contact_Email": "seattle@organizeforyang.org", "Yang_Gang_Regional_Organizer_Email": "washington.yang.gang@gmail.com", "Yang_Gang_Facebook_Group": "https:\/\/www.facebook.com\/groups\/seattleyanggang\/", "Google_Group_Link": "", "Slack_Group_link": "" }, "geometry": null },
{ "type": "Feature", "properties": { "Name": "Beaumont", "City": "Beaumont", "State": "Texas", "Yang_Gang_Primary_Contact": "Mitchell Allen", "Yang_Gang_Primary_Contact_Email": "mitchellallen3701@gmail.com", "Yang_Gang_Regional_Organizer_Email": "", "Yang_Gang_Facebook_Group": "https:\/\/www.facebook.com\/groups\/807568086242734\/", "Google_Group_Link": "", "Slack_Group_link": "" }, "geometry": null },
{ "type": "Feature", "properties": { "Name": "Silicon Valley", "City": "Silicon Valley", "State": "California", "Yang_Gang_Primary_Contact": "Paul Chen", "Yang_Gang_Primary_Contact_Email": "chenpaul@gmail.com", "Yang_Gang_Regional_Organizer_Email": "socal.yang.gang@gmail.com", "Yang_Gang_Facebook_Group": "https:\/\/www.facebook.com\/groups\/2242586122662904\/", "Google_Group_Link": "", "Slack_Group_link": "" }, "geometry": null },
{ "type": "Feature", "properties": { "Name": "Fort Wayne", "City": "Fort Wayne", "State": "Indiana", "Yang_Gang_Primary_Contact": "Brian Smith", "Yang_Gang_Primary_Contact_Email": "BrianSmithForYang@gmail.com", "Yang_Gang_Regional_Organizer_Email": "indy.yang.gang@gmail.com", "Yang_Gang_Facebook_Group": "https:\/\/www.facebook.com\/groups\/2291453967577759\/", "Google_Group_Link": "", "Slack_Group_link": "" }, "geometry": null },
{ "type": "Feature", "properties": { "Name": "Indiana", "City": "Indiana", "State": "Indiana", "Yang_Gang_Primary_Contact": "Mark Alinsky", "Yang_Gang_Primary_Contact_Email": "", "Yang_Gang_Regional_Organizer_Email": "indy.yang.gang@gmail.com", "Yang_Gang_Facebook_Group": "https:\/\/www.facebook.com\/groups\/2559180224308642\/", "Google_Group_Link": "", "Slack_Group_link": "" }, "geometry": null },
{ "type": "Feature", "properties": { "Name": "Warrensburg", "City": "Warrensburg", "State": "Missouri", "Yang_Gang_Primary_Contact": "Dewy Baugh", "Yang_Gang_Primary_Contact_Email": "", "Yang_Gang_Regional_Organizer_Email": "missouri.yang.gang@gmail.com", "Yang_Gang_Facebook_Group": "https:\/\/www.facebook.com\/groups\/309238509776506\/", "Google_Group_Link": "", "Slack_Group_link": "" }, "geometry": null },
{ "type": "Feature", "properties": { "Name": "Sonoma County", "City": "Sonoma County", "State": "California", "Yang_Gang_Primary_Contact": "Addison Rex", "Yang_Gang_Primary_Contact_Email": "rexofspades@gmail.com", "Yang_Gang_Regional_Organizer_Email": "socal.yang.gang@gmail.com", "Yang_Gang_Facebook_Group": "https:\/\/www.facebook.com\/groups\/520594788463774", "Google_Group_Link": "", "Slack_Group_link": "" }, "geometry": null },
{ "type": "Feature", "properties": { "Name": "South Bay (San Jose)", "City": "South Bay (San Jose)", "State": "California", "Yang_Gang_Primary_Contact": "Hira Kayani", "Yang_Gang_Primary_Contact_Email": "hira.a.kayani@gmail.com", "Yang_Gang_Regional_Organizer_Email": "socal.yang.gang@gmail.com", "Yang_Gang_Facebook_Group": "https:\/\/www.facebook.com\/groups\/351575822362247\/", "Google_Group_Link": "", "Slack_Group_link": "https:\/\/join.slack.com\/t\/southbayyanggang\/shared_invite\/enQtNjQ5NTU0ODc5NjAzLWY2N2MyYTA1OTBmYTNlZTM2OTMwNzBhZmYxMjFjMjc5MzBkM2IwMzEwOTZhNjI2OTVjYWZhZjM5YzYwYTE2ZTA" }, "geometry": null },
{ "type": "Feature", "properties": { "Name": "University of Florida", "City": "University of Florida", "State": "Florida", "Yang_Gang_Primary_Contact": "Michele LeSure", "Yang_Gang_Primary_Contact_Email": "gainesville.yang.gang@gmail.com", "Yang_Gang_Regional_Organizer_Email": "florida.yang.gang@gmail.com", "Yang_Gang_Facebook_Group": "https:\/\/www.facebook.com\/groups\/gainesvilleyanggang\/", "Google_Group_Link": "", "Slack_Group_link": "" }, "geometry": null },
{ "type": "Feature", "properties": { "Name": "Southampton", "City": "Southampton", "State": "Pennsylvania", "Yang_Gang_Primary_Contact": "Jarred Peglow", "Yang_Gang_Primary_Contact_Email": "Peglow189@gmail.com", "Yang_Gang_Regional_Organizer_Email": "", "Yang_Gang_Facebook_Group": "", "Google_Group_Link": "", "Slack_Group_link": "" }, "geometry": null },
{ "type": "Feature", "properties": { "Name": "Dubuque", "City": "Dubuque", "State": "Iowa", "Yang_Gang_Primary_Contact": "Laura Marlow", "Yang_Gang_Primary_Contact_Email": "prfctpayne@gmail.com", "Yang_Gang_Regional_Organizer_Email": "Iowa.Yang.Gang@gmail.com", "Yang_Gang_Facebook_Group": "https:\/\/www.facebook.com\/groups\/2298284940453974\/", "Google_Group_Link": "", "Slack_Group_link": "" }, "geometry": null },
{ "type": "Feature", "properties": { "Name": "Milwaukee", "City": "Milwaukee", "State": "Wisconsin", "Yang_Gang_Primary_Contact": "Rick Kruse", "Yang_Gang_Primary_Contact_Email": "Rkrusef1@icloud.com", "Yang_Gang_Regional_Organizer_Email": "wisconsin.yang.gang@gmail.com", "Yang_Gang_Facebook_Group": "https:\/\/www.facebook.com\/groups\/349147862250663\/", "Google_Group_Link": "", "Slack_Group_link": "" }, "geometry": null },
{ "type": "Feature", "properties": { "Name": "Southern New Jersey \/ Egg Harbor City", "City": "Southern New Jersey \/ Egg Harbor City", "State": "New Jersey", "Yang_Gang_Primary_Contact": "Justin Piatt", "Yang_Gang_Primary_Contact_Email": "southjerseyyanggang@gmail.com", "Yang_Gang_Regional_Organizer_Email": "", "Yang_Gang_Facebook_Group": "https:\/\/www.facebook.com\/groups\/SouthJerseyYangGang\/", "Google_Group_Link": "", "Slack_Group_link": "" }, "geometry": null },
{ "type": "Feature", "properties": { "Name": "Rocky Mount", "City": "Rocky Mount", "State": "North Carolina", "Yang_Gang_Primary_Contact": "Juakeia Jones", "Yang_Gang_Primary_Contact_Email": "RockyMount.Yang.Gang@gmail.com", "Yang_Gang_Regional_Organizer_Email": "NC.Yang.Gang@gmail.com ", "Yang_Gang_Facebook_Group": "https:\/\/www.facebook.com\/groups\/562533090907189\/", "Google_Group_Link": "", "Slack_Group_link": "" }, "geometry": null },
{ "type": "Feature", "properties": { "Name": "Spokane", "City": "Spokane", "State": "Washington", "Yang_Gang_Primary_Contact": "", "Yang_Gang_Primary_Contact_Email": "", "Yang_Gang_Regional_Organizer_Email": "washington.yang.gang@gmail.com", "Yang_Gang_Facebook_Group": "https:\/\/www.facebook.com\/groups\/1219555091545838\/", "Google_Group_Link": "", "Slack_Group_link": "" }, "geometry": null },
{ "type": "Feature", "properties": { "Name": "Valparaiso", "City": "Valparaiso", "State": "Indiana", "Yang_Gang_Primary_Contact": "Shiv G", "Yang_Gang_Primary_Contact_Email": "", "Yang_Gang_Regional_Organizer_Email": "indy.yang.gang@gmail.com", "Yang_Gang_Facebook_Group": "https:\/\/www.facebook.com\/groups\/402213573874679\/", "Google_Group_Link": "", "Slack_Group_link": "" }, "geometry": null },
{ "type": "Feature", "properties": { "Name": "Tulsa", "City": "Tulsa", "State": "Oklahoma", "Yang_Gang_Primary_Contact": "Levi Crandall", "Yang_Gang_Primary_Contact_Email": "", "Yang_Gang_Regional_Organizer_Email": "oklahoma.yang.gang@gmail.com", "Yang_Gang_Facebook_Group": "https:\/\/www.facebook.com\/groups\/tulsayanggang\/", "Google_Group_Link": "", "Slack_Group_link": "" }, "geometry": null },
{ "type": "Feature", "properties": { "Name": "Philadelphia", "City": "Philadelphia", "State": "Pennsylvania", "Yang_Gang_Primary_Contact": "A.J. Matteis", "Yang_Gang_Primary_Contact_Email": "matteisaj@gmail.com", "Yang_Gang_Regional_Organizer_Email": "", "Yang_Gang_Facebook_Group": "https:\/\/www.facebook.com\/groups\/2104459566305221\/", "Google_Group_Link": "", "Slack_Group_link": "" }, "geometry": null },
{ "type": "Feature", "properties": { "Name": "Stockton", "City": "Stockton", "State": "California", "Yang_Gang_Primary_Contact": "Mychael Tranchi", "Yang_Gang_Primary_Contact_Email": "mychaeltranchi@gmail.com", "Yang_Gang_Regional_Organizer_Email": "socal.yang.gang@gmail.com", "Yang_Gang_Facebook_Group": "https:\/\/www.facebook.com\/groups\/602187453593253\/", "Google_Group_Link": "", "Slack_Group_link": "" }, "geometry": null },
{ "type": "Feature", "properties": { "Name": "New London County", "City": "New London County", "State": "Connecticut", "Yang_Gang_Primary_Contact": "Kyle Landry", "Yang_Gang_Primary_Contact_Email": "klandry5201@gmail.com", "Yang_Gang_Regional_Organizer_Email": "Connecticut.Yang.Gang@gmail.com", "Yang_Gang_Facebook_Group": "https:\/\/www.facebook.com\/groups\/NLYangGang\/", "Google_Group_Link": "", "Slack_Group_link": "" }, "geometry": null },
{ "type": "Feature", "properties": { "Name": "Columbia", "City": "Columbia", "State": "South Carolina", "Yang_Gang_Primary_Contact": "Barrett Hurd", "Yang_Gang_Primary_Contact_Email": "barrett.hurd@gmail.com", "Yang_Gang_Regional_Organizer_Email": "southcarolina.yang.gang@gmail.com", "Yang_Gang_Facebook_Group": "https:\/\/www.facebook.com\/groups\/371209653470967\/", "Google_Group_Link": "", "Slack_Group_link": "" }, "geometry": null },
{ "type": "Feature", "properties": { "Name": "Canada", "City": "Canada", "State": "Canada", "Yang_Gang_Primary_Contact": "Cameron Miranda-Radbord", "Yang_Gang_Primary_Contact_Email": "mirca@utschools.ca", "Yang_Gang_Regional_Organizer_Email": "", "Yang_Gang_Facebook_Group": "https:\/\/www.facebook.com\/groups\/823606081335205\/", "Google_Group_Link": "", "Slack_Group_link": "" }, "geometry": null },
{ "type": "Feature", "properties": { "Name": "Tampa Bay", "City": "Tampa Bay", "State": "Florida", "Yang_Gang_Primary_Contact": "Irwing Nieto", "Yang_Gang_Primary_Contact_Email": "TampaBay.Yang.Gang@gmail.com", "Yang_Gang_Regional_Organizer_Email": "florida.yang.gang@gmail.com", "Yang_Gang_Facebook_Group": "https:\/\/www.facebook.com\/groups\/tampabayyanggang\/", "Google_Group_Link": "", "Slack_Group_link": "" }, "geometry": null },
{ "type": "Feature", "properties": { "Name": "San Antonio", "City": "San Antonio", "State": "Texas", "Yang_Gang_Primary_Contact": "Joe Pastrano", "Yang_Gang_Primary_Contact_Email": "sayanggang2020@gmail.com", "Yang_Gang_Regional_Organizer_Email": "", "Yang_Gang_Facebook_Group": "https:\/\/www.facebook.com\/groups\/SanAntonioYangGang", "Google_Group_Link": "", "Slack_Group_link": "" }, "geometry": null },
{ "type": "Feature", "properties": { "Name": "Fayetteville", "City": "Fayetteville", "State": "Arkansas", "Yang_Gang_Primary_Contact": "Asheli Robins", "Yang_Gang_Primary_Contact_Email": "", "Yang_Gang_Regional_Organizer_Email": "arkansas.yang.gang@gmail.com", "Yang_Gang_Facebook_Group": "https:\/\/www.facebook.com\/groups\/1516757061792207\/", "Google_Group_Link": "", "Slack_Group_link": "" }, "geometry": null },
{ "type": "Feature", "properties": { "Name": "Alaska", "City": "Alaska", "State": "Alaska", "Yang_Gang_Primary_Contact": "Eileen Patterson", "Yang_Gang_Primary_Contact_Email": "", "Yang_Gang_Regional_Organizer_Email": "alaska.yang.gang@gmail.com", "Yang_Gang_Facebook_Group": "https:\/\/www.facebook.com\/groups\/401905570573792\/", "Google_Group_Link": "", "Slack_Group_link": "" }, "geometry": null },
{ "type": "Feature", "properties": { "Name": "Marietta", "City": "Marietta", "State": "Georgia", "Yang_Gang_Primary_Contact": "Traci Murray", "Yang_Gang_Primary_Contact_Email": "Marietta.YangGang@gmail.com", "Yang_Gang_Regional_Organizer_Email": "georgia.yang.gang@gmail.com", "Yang_Gang_Facebook_Group": "https:\/\/www.facebook.com\/groups\/373221050071250\/", "Google_Group_Link": "", "Slack_Group_link": "" }, "geometry": null },
{ "type": "Feature", "properties": { "Name": "Tucson", "City": "Tucson", "State": "Arizona", "Yang_Gang_Primary_Contact": "Jim Soward", "Yang_Gang_Primary_Contact_Email": "jsowar@gmail.com", "Yang_Gang_Regional_Organizer_Email": "arizona.yang.gang@gmail.com", "Yang_Gang_Facebook_Group": "https:\/\/www.facebook.com\/groups\/304648126888910\/events\/", "Google_Group_Link": "", "Slack_Group_link": "" }, "geometry": null },
{ "type": "Feature", "properties": { "Name": "Mobile", "City": "Mobile", "State": "Alabama", "Yang_Gang_Primary_Contact": "Stacia Yim", "Yang_Gang_Primary_Contact_Email": "mobile.yang.gang@gmail.com", "Yang_Gang_Regional_Organizer_Email": "alabama.yang.gang@gmail.com", "Yang_Gang_Facebook_Group": "", "Google_Group_Link": "", "Slack_Group_link": "" }, "geometry": null },
{ "type": "Feature", "properties": { "Name": "UCLA", "City": "Los Angeles (Westwood)", "State": "California", "Yang_Gang_Primary_Contact": "Lee-kai Wang", "Yang_Gang_Primary_Contact_Email": "ucla.yang.gang@gmail.com", "Yang_Gang_Regional_Organizer_Email": "socal.yang.gang@gmail.com", "Yang_Gang_Facebook_Group": "https:\/\/www.facebook.com\/groups\/943812422487907\/", "Google_Group_Link": "", "Slack_Group_link": "" }, "geometry": null },
{ "type": "Feature", "properties": { "Name": "Frederick", "City": "Frederick", "State": "Maryland", "Yang_Gang_Primary_Contact": "Devin Trivedi", "Yang_Gang_Primary_Contact_Email": "", "Yang_Gang_Regional_Organizer_Email": "maryland.yang.gang@gmail.com", "Yang_Gang_Facebook_Group": "https:\/\/www.facebook.com\/groups\/FrederickForYang\/", "Google_Group_Link": "", "Slack_Group_link": "" }, "geometry": null },
{ "type": "Feature", "properties": { "Name": "Cheraw", "City": "Cheraw", "State": "South Carolina", "Yang_Gang_Primary_Contact": "Bruce Wallace", "Yang_Gang_Primary_Contact_Email": "Bruce_ka@yahoo.com", "Yang_Gang_Regional_Organizer_Email": "southcarolina.yang.gang@gmail.com", "Yang_Gang_Facebook_Group": "https:\/\/www.facebook.com\/groups\/369998850511673\/", "Google_Group_Link": "", "Slack_Group_link": "" }, "geometry": null },
{ "type": "Feature", "properties": { "Name": "Upper Valley\/Lebanon", "City": "Upper Valley\/Lebanon", "State": "New Hampshire", "Yang_Gang_Primary_Contact": "Christine Donohue", "Yang_Gang_Primary_Contact_Email": "", "Yang_Gang_Regional_Organizer_Email": "NewHampshire.Yang.Gang@gmail.com", "Yang_Gang_Facebook_Group": "https:\/\/www.facebook.com\/groups\/uppervalleyyanggang\/", "Google_Group_Link": "", "Slack_Group_link": "" }, "geometry": null },
{ "type": "Feature", "properties": { "Name": "Utah", "City": "Utah", "State": "Utah", "Yang_Gang_Primary_Contact": "Jonathan Orlofsky", "Yang_Gang_Primary_Contact_Email": "", "Yang_Gang_Regional_Organizer_Email": "ut.yang.gang@gmail.com", "Yang_Gang_Facebook_Group": "https:\/\/www.facebook.com\/groups\/utahyanggang\/", "Google_Group_Link": "", "Slack_Group_link": "" }, "geometry": null },
{ "type": "Feature", "properties": { "Name": "Ohio State University", "City": "Ohio State University", "State": "Ohio", "Yang_Gang_Primary_Contact": "Zain Bali", "Yang_Gang_Primary_Contact_Email": "zain.bali@outlook.com", "Yang_Gang_Regional_Organizer_Email": "ohio.yang.gang@gmail.com", "Yang_Gang_Facebook_Group": "https:\/\/www.facebook.com\/groups\/706873989767181\/", "Google_Group_Link": "", "Slack_Group_link": "" }, "geometry": null },
{ "type": "Feature", "properties": { "Name": "Vista, CA Yang Gang", "City": "Vista", "State": "California", "Yang_Gang_Primary_Contact": "Carlos Ortiz", "Yang_Gang_Primary_Contact_Email": "socal.yang.gang@gmail.com", "Yang_Gang_Regional_Organizer_Email": "socal.yang.gang@gmail.com", "Yang_Gang_Facebook_Group": "https:\/\/www.facebook.com\/groups\/354349255412042\/", "Google_Group_Link": "", "Slack_Group_link": "" }, "geometry": null },
{ "type": "Feature", "properties": { "Name": "Columbia", "City": "Columbia", "State": "Missouri", "Yang_Gang_Primary_Contact": "Adam Flock", "Yang_Gang_Primary_Contact_Email": "", "Yang_Gang_Regional_Organizer_Email": "missouri.yang.gang@gmail.com", "Yang_Gang_Facebook_Group": "https:\/\/www.facebook.com\/groups\/CoMoYangGang\/", "Google_Group_Link": "", "Slack_Group_link": "" }, "geometry": null },
{ "type": "Feature", "properties": { "Name": "5th District Washington", "City": "Washington, DC", "State": "Washington, DC", "Yang_Gang_Primary_Contact": "Jake Dibattista", "Yang_Gang_Primary_Contact_Email": "district.yang.gang@gmail.com", "Yang_Gang_Regional_Organizer_Email": "district.yang.gang@gmail.com", "Yang_Gang_Facebook_Group": "https:\/\/www.facebook.com\/groups\/dcyanggang\/", "Google_Group_Link": "", "Slack_Group_link": "" }, "geometry": null },
{ "type": "Feature", "properties": { "Name": "Westport", "City": "Westport", "State": "Connecticut", "Yang_Gang_Primary_Contact": "Gary Lu", "Yang_Gang_Primary_Contact_Email": "westportyanggang@gmail.com", "Yang_Gang_Regional_Organizer_Email": "Connecticut.Yang.Gang@gmail.com", "Yang_Gang_Facebook_Group": "https:\/\/www.facebook.com\/groups\/FairfieldCountyYangGang\/", "Google_Group_Link": "", "Slack_Group_link": "" }, "geometry": null },
{ "type": "Feature", "properties": { "Name": "Des Moines", "City": "Des Moines", "State": "Iowa", "Yang_Gang_Primary_Contact": "Pheng Yang", "Yang_Gang_Primary_Contact_Email": "Phengy1@gmail.com", "Yang_Gang_Regional_Organizer_Email": "Iowa.Yang.Gang@gmail.com", "Yang_Gang_Facebook_Group": "https:\/\/www.facebook.com\/groups\/2015245508524175\/", "Google_Group_Link": "", "Slack_Group_link": "" }, "geometry": null },
{ "type": "Feature", "properties": { "Name": "Westchester", "City": "Westchester", "State": "New York", "Yang_Gang_Primary_Contact": "Tyler Orden", "Yang_Gang_Primary_Contact_Email": "westchesteryanggang@gmail.com", "Yang_Gang_Regional_Organizer_Email": "newyork.yang.gang@gmail.com", "Yang_Gang_Facebook_Group": "https:\/\/www.facebook.com\/groups\/286571955552071\/", "Google_Group_Link": "", "Slack_Group_link": "" }, "geometry": null },
{ "type": "Feature", "properties": { "Name": "Hudson Valley", "City": "Hudson Valley", "State": "New York", "Yang_Gang_Primary_Contact": "Keiko Sono", "Yang_Gang_Primary_Contact_Email": "hudsonvalley.yang.gang@gmail.com", "Yang_Gang_Regional_Organizer_Email": "newyork.yang.gang@gmail.com", "Yang_Gang_Facebook_Group": "https:\/\/www.facebook.com\/groups\/881358938861818\/", "Google_Group_Link": "", "Slack_Group_link": "" }, "geometry": null },
{ "type": "Feature", "properties": { "Name": "Berkshire", "City": "Berkshire", "State": "Massachusetts", "Yang_Gang_Primary_Contact": "Emily Johnson", "Yang_Gang_Primary_Contact_Email": "Berkshire.Yang.Gang@gmail.com", "Yang_Gang_Regional_Organizer_Email": "Massachusetts.Yang.Gang@gmail.com", "Yang_Gang_Facebook_Group": "https:\/\/www.facebook.com\/groups\/BerkshireYangGang\/", "Google_Group_Link": "", "Slack_Group_link": "" }, "geometry": null },
{ "type": "Feature", "properties": { "Name": "Whitefish", "City": "Whitefish", "State": "Montana", "Yang_Gang_Primary_Contact": "Robert Nabors", "Yang_Gang_Primary_Contact_Email": "rericnabors@gmail.com", "Yang_Gang_Regional_Organizer_Email": "montana.yang.gang@gmail.com", "Yang_Gang_Facebook_Group": "https:\/\/www.facebook.com\/groups\/334607613817895\/", "Google_Group_Link": "", "Slack_Group_link": "" }, "geometry": null },
{ "type": "Feature", "properties": { "Name": "Sioux Falls", "City": "Sioux Falls", "State": "South Dakota", "Yang_Gang_Primary_Contact": "Robert Hodgdon", "Yang_Gang_Primary_Contact_Email": "", "Yang_Gang_Regional_Organizer_Email": "southdakota.yang.gang@gmail.com", "Yang_Gang_Facebook_Group": "https:\/\/www.facebook.com\/groups\/2239712159678850\/", "Google_Group_Link": "", "Slack_Group_link": "" }, "geometry": null },
{ "type": "Feature", "properties": { "Name": "Chapel Hill", "City": "Chapel Hill", "State": "North Carolina", "Yang_Gang_Primary_Contact": "Thora Jordt", "Yang_Gang_Primary_Contact_Email": "", "Yang_Gang_Regional_Organizer_Email": "NC.Yang.Gang@gmail.com ", "Yang_Gang_Facebook_Group": "https:\/\/www.facebook.com\/groups\/2328442760533711\/", "Google_Group_Link": "", "Slack_Group_link": "" }, "geometry": null },
{ "type": "Feature", "properties": { "Name": "Fort Mill", "City": "Fort Mill", "State": "South Carolina", "Yang_Gang_Primary_Contact": "Herbert Harman", "Yang_Gang_Primary_Contact_Email": "herbert.j.harman@gmail.com", "Yang_Gang_Regional_Organizer_Email": "southcarolina.yang.gang@gmail.com", "Yang_Gang_Facebook_Group": "https:\/\/www.facebook.com\/groups\/430496897724241\/", "Google_Group_Link": "", "Slack_Group_link": "" }, "geometry": null },
{ "type": "Feature", "properties": { "Name": "Eau Claire", "City": "Eau Claire", "State": "Wisconsin", "Yang_Gang_Primary_Contact": "Viola Myers", "Yang_Gang_Primary_Contact_Email": "myersvj1028@hotmail.com", "Yang_Gang_Regional_Organizer_Email": "wisconsin.yang.gang@gmail.com", "Yang_Gang_Facebook_Group": "https:\/\/www.facebook.com\/groups\/369789313884575\/?ref=share", "Google_Group_Link": "", "Slack_Group_link": "" }, "geometry": null },
{ "type": "Feature", "properties": { "Name": "Kansas City", "City": "Kansas City", "State": "Kansas", "Yang_Gang_Primary_Contact": "Rachel Best", "Yang_Gang_Primary_Contact_Email": "", "Yang_Gang_Regional_Organizer_Email": "kansas.yang.gang@gmail.com", "Yang_Gang_Facebook_Group": "https:\/\/www.facebook.com\/groups\/2348354308541973\/", "Google_Group_Link": "", "Slack_Group_link": "" }, "geometry": null },
{ "type": "Feature", "properties": { "Name": "Coos Bay", "City": "Coos Bay", "State": "Oregon", "Yang_Gang_Primary_Contact": "Stacy Harris", "Yang_Gang_Primary_Contact_Email": "southoregoncoast.yang.gang@gmail.om", "Yang_Gang_Regional_Organizer_Email": "oregon.yang.gang@gmail.com ", "Yang_Gang_Facebook_Group": "https:\/\/www.facebook.com\/groups\/southoregoncoastyanggang\/", "Google_Group_Link": "", "Slack_Group_link": "" }, "geometry": null },
{ "type": "Feature", "properties": { "Name": "Charlottesville", "City": "Charlottesville", "State": "Virginia", "Yang_Gang_Primary_Contact": "Russell Jory", "Yang_Gang_Primary_Contact_Email": "charlottesville.yang.gang@gmail.com", "Yang_Gang_Regional_Organizer_Email": "Virginia.yang.gang@gmail.com", "Yang_Gang_Facebook_Group": "https:\/\/www.facebook.com\/groups\/2370335213047123\/", "Google_Group_Link": "", "Slack_Group_link": "" }, "geometry": null },
{ "type": "Feature", "properties": { "Name": "Olympia", "City": "Olympia", "State": "Washington", "Yang_Gang_Primary_Contact": "", "Yang_Gang_Primary_Contact_Email": "", "Yang_Gang_Regional_Organizer_Email": "washington.yang.gang@gmail.com", "Yang_Gang_Facebook_Group": "https:\/\/www.facebook.com\/groups\/327418394811554\/", "Google_Group_Link": "", "Slack_Group_link": "" }, "geometry": null },
{ "type": "Feature", "properties": { "Name": "Antelope Valley Yang Gang", "City": "Antelope Valley", "State": "California", "Yang_Gang_Primary_Contact": "Mary Paniscus", "Yang_Gang_Primary_Contact_Email": "av.yang.gang@gmail.com ", "Yang_Gang_Regional_Organizer_Email": "socal.yang.gang@gmail.com", "Yang_Gang_Facebook_Group": "https:\/\/www.facebook.com\/groups\/av.yang.gang\/", "Google_Group_Link": "", "Slack_Group_link": "" }, "geometry": null },
{ "type": "Feature", "properties": { "Name": "Naperville ", "City": "Naperville", "State": "Illinois", "Yang_Gang_Primary_Contact": "Claire Yu", "Yang_Gang_Primary_Contact_Email": "claireyu.ct@gmail.com", "Yang_Gang_Regional_Organizer_Email": "illinois.yang.gang@gmail.com", "Yang_Gang_Facebook_Group": "https:\/\/www.facebook.com\/groups\/308330383382170\/about\/", "Google_Group_Link": "", "Slack_Group_link": "" }, "geometry": null },
{ "type": "Feature", "properties": { "Name": "Cottage Grove", "City": "Cottage Grove", "State": "Oregon", "Yang_Gang_Primary_Contact": "Keegan Quinn", "Yang_Gang_Primary_Contact_Email": "cottagegrove.yang.gang@gmail.com", "Yang_Gang_Regional_Organizer_Email": "oregon.yang.gang@gmail.com ", "Yang_Gang_Facebook_Group": "https:\/\/www.facebook.com\/groups\/2377225735930427\/", "Google_Group_Link": "", "Slack_Group_link": "" }, "geometry": null },
{ "type": "Feature", "properties": { "Name": "Bend", "City": "Bend", "State": "Oregon", "Yang_Gang_Primary_Contact": "", "Yang_Gang_Primary_Contact_Email": "bend.yang.gang@gmail.com ", "Yang_Gang_Regional_Organizer_Email": "oregon.yang.gang@gmail.com ", "Yang_Gang_Facebook_Group": "", "Google_Group_Link": "", "Slack_Group_link": "" }, "geometry": null },
{ "type": "Feature", "properties": { "Name": "Cerritos Yang Gang", "City": "Cerritos", "State": "CA", "Yang_Gang_Primary_Contact": "Duy Ho", "Yang_Gang_Primary_Contact_Email": "socal.yang.gang@gmail.com", "Yang_Gang_Regional_Organizer_Email": "socal.yang.gang@gmail.com", "Yang_Gang_Facebook_Group": "https:\/\/www.facebook.com\/groups\/CerritosYangGang\/", "Google_Group_Link": "", "Slack_Group_link": "" }, "geometry": null },
{ "type": "Feature", "properties": { "Name": "Great Barrington", "City": "Great Barrington", "State": "Massachusetts", "Yang_Gang_Primary_Contact": "Derek Eshelman", "Yang_Gang_Primary_Contact_Email": "gb.yang.gang@gmail.com ", "Yang_Gang_Regional_Organizer_Email": "Massachusetts.Yang.Gang@gmail.com", "Yang_Gang_Facebook_Group": "https:\/\/www.facebook.com\/groups\/GB.Yang.Gang\/", "Google_Group_Link": "", "Slack_Group_link": "" }, "geometry": null },
{ "type": "Feature", "properties": { "Name": "Worcester", "City": "Worcester", "State": "Massachusetts", "Yang_Gang_Primary_Contact": "Devon Holler & Leslie Cruz", "Yang_Gang_Primary_Contact_Email": "holler.devon@gmail.com ", "Yang_Gang_Regional_Organizer_Email": "Massachusetts.Yang.Gang@gmail.com", "Yang_Gang_Facebook_Group": "https:\/\/www.facebook.com\/groups\/425150314974758\/", "Google_Group_Link": "", "Slack_Group_link": "https:\/\/worcesteryanggang.slack.com\/" }, "geometry": null },
{ "type": "Feature", "properties": { "Name": "Tri-Cities (Kennewick, Richland, Pasco)", "City": "Kennewick", "State": "Washington", "Yang_Gang_Primary_Contact": "Brett Baker", "Yang_Gang_Primary_Contact_Email": "tricitieswa.yang.gang@gmail.com", "Yang_Gang_Regional_Organizer_Email": "washington.yang.gang@gmail.com", "Yang_Gang_Facebook_Group": "", "Google_Group_Link": "", "Slack_Group_link": "" }, "geometry": null },
{ "type": "Feature", "properties": { "Name": "Massachusetts\/Cambridge", "City": "Massachusetts\/Cambridge", "State": "Massachusetts", "Yang_Gang_Primary_Contact": "Vicky Liang and Blair Bateson", "Yang_Gang_Primary_Contact_Email": "yang2020mass@gmail.com", "Yang_Gang_Regional_Organizer_Email": "Massachusetts.Yang.Gang@gmail.com", "Yang_Gang_Facebook_Group": "https:\/\/www.facebook.com\/groups\/MassachusettsYangGang\/", "Google_Group_Link": "", "Slack_Group_link": "" }, "geometry": null },
{ "type": "Feature", "properties": { "Name": "Yamhill County", "City": "Yamhill County", "State": "Oregon", "Yang_Gang_Primary_Contact": "Jeff Dougherty", "Yang_Gang_Primary_Contact_Email": "yamhillcounty.yang.gang@gmail.com", "Yang_Gang_Regional_Organizer_Email": "oregon.yang.gang@gmail.com ", "Yang_Gang_Facebook_Group": "https:\/\/www.facebook.com\/groups\/YCYangGang\/", "Google_Group_Link": "", "Slack_Group_link": "" }, "geometry": null },
{ "type": "Feature", "properties": { "Name": "Bronx", "City": "Bronx", "State": "New York", "Yang_Gang_Primary_Contact": "Carol Incarnacao-Schirm", "Yang_Gang_Primary_Contact_Email": "nycyanggang@gmail.com", "Yang_Gang_Regional_Organizer_Email": "newyork.yang.gang@gmail.com", "Yang_Gang_Facebook_Group": "https:\/\/www.facebook.com\/groups\/thebronxyanggang\/", "Google_Group_Link": "", "Slack_Group_link": "" }, "geometry": null },
{ "type": "Feature", "properties": { "Name": "Boerum Hill", "City": "Boerum Hill", "State": "New York", "Yang_Gang_Primary_Contact": "Darren Jer", "Yang_Gang_Primary_Contact_Email": "nycyanggang@gmail.com", "Yang_Gang_Regional_Organizer_Email": "newyork.yang.gang@gmail.com", "Yang_Gang_Facebook_Group": "https:\/\/www.facebook.com\/groups\/338903730150431\/", "Google_Group_Link": "", "Slack_Group_link": "" }, "geometry": null },
{ "type": "Feature", "properties": { "Name": "Dover", "City": "Dover", "State": "Delaware", "Yang_Gang_Primary_Contact": "Alyssa Monet Mason", "Yang_Gang_Primary_Contact_Email": "dover.yang.gang@gmail.com", "Yang_Gang_Regional_Organizer_Email": "delaware.yang.gang@gmail.com", "Yang_Gang_Facebook_Group": "https:\/\/www.facebook.com\/groups\/delawareyanggang ", "Google_Group_Link": "", "Slack_Group_link": "" }, "geometry": null },
{ "type": "Feature", "properties": { "Name": "Tallahassee", "City": "Tallahassee", "State": "Florida", "Yang_Gang_Primary_Contact": "Denise Brown", "Yang_Gang_Primary_Contact_Email": "tallahassee.yang.gang@gmail.com", "Yang_Gang_Regional_Organizer_Email": "florida.yang.gang@gmail.com", "Yang_Gang_Facebook_Group": "", "Google_Group_Link": "", "Slack_Group_link": "https:\/\/tallahassee-yang-gang.slack.com" }, "geometry": null },
{ "type": "Feature", "properties": { "Name": "Lansing", "City": "Lansing", "State": "Michigan", "Yang_Gang_Primary_Contact": "Rebecca Nagy", "Yang_Gang_Primary_Contact_Email": "bookbeckbecca@gmail.com", "Yang_Gang_Regional_Organizer_Email": "michigan.yang.gang@gmail.com", "Yang_Gang_Facebook_Group": "https:\/\/www.facebook.com\/groups\/453530405434632\/", "Google_Group_Link": "", "Slack_Group_link": "" }, "geometry": null },
{ "type": "Feature", "properties": { "Name": "Schenectady", "City": "Schenectady", "State": "New York", "Yang_Gang_Primary_Contact": "Emily LaFountain", "Yang_Gang_Primary_Contact_Email": "schenectady.yang.gang@gmail.com", "Yang_Gang_Regional_Organizer_Email": "newyork.yang.gang@gmail.com", "Yang_Gang_Facebook_Group": "https:\/\/www.facebook.com\/groups\/1144378515764202\/", "Google_Group_Link": "", "Slack_Group_link": "" }, "geometry": null },
{ "type": "Feature", "properties": { "Name": "Buffalo", "City": "Buffalo", "State": "New York", "Yang_Gang_Primary_Contact": "Rebecca Joy Roussev", "Yang_Gang_Primary_Contact_Email": "Buffalo.yang.gang@gmail.com", "Yang_Gang_Regional_Organizer_Email": "newyork.yang.gang@gmail.com", "Yang_Gang_Facebook_Group": "https:\/\/www.facebook.com\/groups\/340573389983790", "Google_Group_Link": "", "Slack_Group_link": "" }, "geometry": null },
{ "type": "Feature", "properties": { "Name": "Traverse City", "City": "Traverse City", "State": "Michigan ", "Yang_Gang_Primary_Contact": "Erin Loomis", "Yang_Gang_Primary_Contact_Email": "erinhloomis@hotmail.com", "Yang_Gang_Regional_Organizer_Email": "michigan.yang.gang@gmail.com", "Yang_Gang_Facebook_Group": "https:\/\/www.facebook.com\/groups\/326732488245056\/", "Google_Group_Link": "", "Slack_Group_link": "" }, "geometry": null },
{ "type": "Feature", "properties": { "Name": "Fremont", "City": "Fremont", "State": "Ohio", "Yang_Gang_Primary_Contact": "Madison Keessee", "Yang_Gang_Primary_Contact_Email": "maddykeesee1198@gmail.com", "Yang_Gang_Regional_Organizer_Email": "ohio.yang.gang@gmail.com", "Yang_Gang_Facebook_Group": "", "Google_Group_Link": "", "Slack_Group_link": "" }, "geometry": null },
{ "type": "Feature", "properties": { "Name": "Bountiful", "City": "Bountiful", "State": "Utah", "Yang_Gang_Primary_Contact": "Luke Kempe", "Yang_Gang_Primary_Contact_Email": "bountiful.yang.gang@gmail.com", "Yang_Gang_Regional_Organizer_Email": "ut.yang.gang@gmail.com", "Yang_Gang_Facebook_Group": "", "Google_Group_Link": "", "Slack_Group_link": "bountifulyanggang.slack.com" }, "geometry": null },
{ "type": "Feature", "properties": { "Name": "Maui", "City": "Maui", "State": "Hawaii", "Yang_Gang_Primary_Contact": "Chris DeGuzman", "Yang_Gang_Primary_Contact_Email": "mauiyanggang@gmail.com", "Yang_Gang_Regional_Organizer_Email": "HawaiiRO.yang.gang@gmail.com", "Yang_Gang_Facebook_Group": "https:\/\/www.facebook.com\/groups\/466391040848407\/", "Google_Group_Link": "", "Slack_Group_link": "" }, "geometry": null },
{ "type": "Feature", "properties": { "Name": "Ann Arbor", "City": "Ann Arbor", "State": "Michigan", "Yang_Gang_Primary_Contact": "Carolyn Wu", "Yang_Gang_Primary_Contact_Email": "a2yang2020@gmail.com", "Yang_Gang_Regional_Organizer_Email": "michigan.yang.gang@gmail.com", "Yang_Gang_Facebook_Group": "https:\/\/www.facebook.com\/groups\/2370828909593939\/", "Google_Group_Link": "", "Slack_Group_link": "" }, "geometry": null },
{ "type": "Feature", "properties": { "Name": "Fort Leonard Wood ", "City": "Fort Leonard Wood ", "State": "Missouri", "Yang_Gang_Primary_Contact": "James Stuart Jr", "Yang_Gang_Primary_Contact_Email": "sassy6750@yahoo.com", "Yang_Gang_Regional_Organizer_Email": "missouri.yang.gang@gmail.com", "Yang_Gang_Facebook_Group": "https:\/\/www.facebook.com\/groups\/384561438845404\/about\/", "Google_Group_Link": "", "Slack_Group_link": "" }, "geometry": null },
{ "type": "Feature", "properties": { "Name": "Grand Rapids", "City": "Grand Rapids", "State": "Michigan ", "Yang_Gang_Primary_Contact": "Sergey\tMatsov", "Yang_Gang_Primary_Contact_Email": "smatsov@gmail.com", "Yang_Gang_Regional_Organizer_Email": "michigan.yang.gang@gmail.com", "Yang_Gang_Facebook_Group": "https:\/\/www.facebook.com\/groups\/523648114825399\/", "Google_Group_Link": "", "Slack_Group_link": "" }, "geometry": null },
{ "type": "Feature", "properties": { "Name": "Metro Detroit", "City": "Detroit", "State": "Michigan", "Yang_Gang_Primary_Contact": "Keivin\tLewis", "Yang_Gang_Primary_Contact_Email": "keivin.d.lewis@gmail.com", "Yang_Gang_Regional_Organizer_Email": "michigan.yang.gang@gmail.com", "Yang_Gang_Facebook_Group": "https:\/\/www.facebook.com\/groups\/yangdetroit\/", "Google_Group_Link": "", "Slack_Group_link": "" }, "geometry": null },
{ "type": "Feature", "properties": { "Name": "Roseburg ", "City": "Roseburg ", "State": "Oregon", "Yang_Gang_Primary_Contact": "Camron\tMoebius", "Yang_Gang_Primary_Contact_Email": "Roseburg.Yang.Gang@gmail.com", "Yang_Gang_Regional_Organizer_Email": "oregon.yang.gang@gmail.com ", "Yang_Gang_Facebook_Group": "", "Google_Group_Link": "", "Slack_Group_link": "" }, "geometry": null },
{ "type": "Feature", "properties": { "Name": "Berkeley", "City": "Berkeley", "State": "California", "Yang_Gang_Primary_Contact": "Bofan\tXu", "Yang_Gang_Primary_Contact_Email": "berkeley.yang.gang@gmail.com", "Yang_Gang_Regional_Organizer_Email": "socal.yang.gang@gmail.com", "Yang_Gang_Facebook_Group": "https:\/\/www.facebook.com\/groups\/409226106346598\/", "Google_Group_Link": "", "Slack_Group_link": "" }, "geometry": null },
{ "type": "Feature", "properties": { "Name": "Castle Rock", "City": "Castle Rock", "State": "Colorado", "Yang_Gang_Primary_Contact": "Karen\tYokley", "Yang_Gang_Primary_Contact_Email": "Freedomdividendme@gmail.com", "Yang_Gang_Regional_Organizer_Email": "colorado.yang.gang@gmail.com", "Yang_Gang_Facebook_Group": "Https:\/\/Facebook.com\/groups\/619653471885242\/", "Google_Group_Link": "", "Slack_Group_link": "" }, "geometry": null },
{ "type": "Feature", "properties": { "Name": "Lowell ", "City": "Lowell", "State": "Massachusetts", "Yang_Gang_Primary_Contact": "Kandal\tThang", "Yang_Gang_Primary_Contact_Email": "Kandal_978@hotmail.com", "Yang_Gang_Regional_Organizer_Email": "Massachusetts.Yang.Gang@gmail.com", "Yang_Gang_Facebook_Group": "", "Google_Group_Link": "", "Slack_Group_link": "" }, "geometry": null },
{ "type": "Feature", "properties": { "Name": "Fort Worth", "City": "Fort Worth ", "State": "Texas", "Yang_Gang_Primary_Contact": "Shafin\tMahodi", "Yang_Gang_Primary_Contact_Email": "shafinmahodi@yahoo.com", "Yang_Gang_Regional_Organizer_Email": "", "Yang_Gang_Facebook_Group": "https:\/\/www.facebook.com\/groups\/1513890988747545\/?ref=share", "Google_Group_Link": "", "Slack_Group_link": "" }, "geometry": null },
{ "type": "Feature", "properties": { "Name": "Kilgore", "City": "Kilgore", "State": "Texas", "Yang_Gang_Primary_Contact": "Tristan Shepherd", "Yang_Gang_Primary_Contact_Email": "Kilgore.yang.gang@gmail.com", "Yang_Gang_Regional_Organizer_Email": "", "Yang_Gang_Facebook_Group": "https:\/\/www.facebook.com\/groups\/349751962625263\/about\/", "Google_Group_Link": "", "Slack_Group_link": "" }, "geometry": null },
{ "type": "Feature", "properties": { "Name": "Mineola", "City": "Mineola", "State": "New York", "Yang_Gang_Primary_Contact": "Alison\tHwang", "Yang_Gang_Primary_Contact_Email": "nassau.yanggang@gmail.com", "Yang_Gang_Regional_Organizer_Email": "newyork.yang.gang@gmail.com", "Yang_Gang_Facebook_Group": "https:\/\/www.facebook.com\/groups\/2163024370675389\/", "Google_Group_Link": "", "Slack_Group_link": "" }, "geometry": null },
{ "type": "Feature", "properties": { "Name": "Augusta", "City": "Augusta", "State": "Georgia", "Yang_Gang_Primary_Contact": "Natalie Loo Dietzenbach", "Yang_Gang_Primary_Contact_Email": "natalie.dietzenbach@gmail.com", "Yang_Gang_Regional_Organizer_Email": "georgia.yang.gang@gmail.com", "Yang_Gang_Facebook_Group": "https:\/\/www.facebook.com\/groups\/313509985970605\/?epa=SEARCH_BOX", "Google_Group_Link": "", "Slack_Group_link": "" }, "geometry": null },
{ "type": "Feature", "properties": { "Name": "Trenton", "City": "Trenton ", "State": "New Jersey", "Yang_Gang_Primary_Contact": "Leah\tPiotroski ", "Yang_Gang_Primary_Contact_Email": "Trentonyanggang@gmail.com", "Yang_Gang_Regional_Organizer_Email": "", "Yang_Gang_Facebook_Group": "https:\/\/www.facebook.com\/groups\/2266209313428909\/?ref=share", "Google_Group_Link": "", "Slack_Group_link": "" }, "geometry": null },
{ "type": "Feature", "properties": { "Name": "Tacoma ", "City": "Tacoma ", "State": "Washington", "Yang_Gang_Primary_Contact": "Alejandro\tPeralta", "Yang_Gang_Primary_Contact_Email": "Tacoma.yang.gang@gmail.com", "Yang_Gang_Regional_Organizer_Email": "washington.yang.gang@gmail.com", "Yang_Gang_Facebook_Group": "https:\/\/www.facebook.com\/groups\/2846382955437000\/", "Google_Group_Link": "", "Slack_Group_link": "" }, "geometry": null },
{ "type": "Feature", "properties": { "Name": "Ellensburg ", "City": "Ellensburg", "State": "Washington ", "Yang_Gang_Primary_Contact": "Floyd\tNelson", "Yang_Gang_Primary_Contact_Email": "Ellensburg.Yang.Gang@gmail.com", "Yang_Gang_Regional_Organizer_Email": "washington.yang.gang@gmail.com", "Yang_Gang_Facebook_Group": "https:\/\/m.facebook.com\/groups\/486648432101067\/?ref=group_browse", "Google_Group_Link": "", "Slack_Group_link": "" }, "geometry": null },
{ "type": "Feature", "properties": { "Name": "Kenmore", "City": "Kenmore", "State": "Washington", "Yang_Gang_Primary_Contact": "", "Yang_Gang_Primary_Contact_Email": "", "Yang_Gang_Regional_Organizer_Email": "washington.yang.gang@gmail.com", "Yang_Gang_Facebook_Group": "", "Google_Group_Link": "", "Slack_Group_link": "" }, "geometry": null },
{ "type": "Feature", "properties": { "Name": "Syracuse", "City": "Syracuse", "State": "New York", "Yang_Gang_Primary_Contact": "Farah Susana", "Yang_Gang_Primary_Contact_Email": "Fsusana1892@gmail.com", "Yang_Gang_Regional_Organizer_Email": "newyork.yang.gang@gmail.com", "Yang_Gang_Facebook_Group": "https:\/\/www.facebook.com\/groups\/414886359124589\/?ref=share", "Google_Group_Link": "", "Slack_Group_link": "https:\/\/join.slack.com\/t\/cuseyanggang\/shared_invite\/enQtNzIzMDYyMjE4NTE2LWMzMWRhMDU4NzI2YTgyZDg5NGY2MTFkOWIyNzE2N2RhM2E4YmY0OWVlM2MzNDBlZmFlZDJmYzAzMTY0NzU0MjM" }, "geometry": null },
{ "type": "Feature", "properties": { "Name": "Staten Island", "City": "Staten Island", "State": "New York", "Yang_Gang_Primary_Contact": "Austin Lee", "Yang_Gang_Primary_Contact_Email": "StatenIslandYangGang@gmail.com", "Yang_Gang_Regional_Organizer_Email": "newyork.yang.gang@gmail.com", "Yang_Gang_Facebook_Group": "facebook.com\/groups\/statenislandyanggang ", "Google_Group_Link": "", "Slack_Group_link": "" }, "geometry": null },
{ "type": "Feature", "properties": { "Name": "Bakersfield Yang Gang", "City": "Bakersfield", "State": "California", "Yang_Gang_Primary_Contact": "Bakersfield Yang Gang", "Yang_Gang_Primary_Contact_Email": "Bakersfield.YangGang@gmail.com", "Yang_Gang_Regional_Organizer_Email": "california.yang.gang@gmail.com", "Yang_Gang_Facebook_Group": "https:\/\/www.facebook.com\/groups\/BakersfieldYangGang\/", "Google_Group_Link": "", "Slack_Group_link": "" }, "geometry": null }
]
}
